{
"type": "FeatureCollection",
"name": "mepcr_",
"crs": { "type": "name", "properties": { "name": "urn:ogc:def:crs:OGC:1.3:CRS84" } },
"features": [
{ "type": "Feature", "properties": { "Provincia": "Alajuela", "Canton": "Upala", "Distrito": "Aguas Claras", "Poblado": "San Isidro", "DRE": "DRE Norte Norte", "Circuito": 2, "Nombre": "San Isidro", "COD_Presup": 3905, "LATITUD": 10.82301835, "LONGITUD": -85.16970278, "Nivel": "3 - Escuela", "Dirección": "Frente al salon comunal" }, "geometry": { "type": "Point", "coordinates": [ -85.169703213270211, 10.823017983987301 ] } },
{ "type": "Feature", "properties": { "Provincia": "Alajuela", "Canton": "Upala", "Distrito": "Aguas Claras", "Poblado": "Aguas Claras", "DRE": "DRE Norte Norte", "Circuito": 2, "Nombre": "Liceo Aguas Claras", "COD_Presup": 4148, "LATITUD": 10.81479547, "LONGITUD": -85.18119196000001, "Nivel": "4 - Colegio", "Dirección": "200 metros Noroeste de la entrada de Río Negro" }, "geometry": { "type": "Point", "coordinates": [ -85.181192383718383, 10.814795098349471 ] } },
{ "type": "Feature", "properties": { "Provincia": "Alajuela", "Canton": "San Carlos", "Distrito": "Aguas Zarcas", "Poblado": "Aguas Zarcas", "DRE": "DRE San Carlos", "Circuito": 4, "Nombre": "Mario Salazar Mora", "COD_Presup": 1388, "LATITUD": 10.37649369, "LONGITUD": -84.34056223, "Nivel": "3 - Escuela", "Dirección": "Costado Norte de la plaza de deportes" }, "geometry": { "type": "Point", "coordinates": [ -84.340562254833969, 10.376493978094405 ] } },
{ "type": "Feature", "properties": { "Provincia": "Alajuela", "Canton": "San Carlos", "Distrito": "Aguas Zarcas", "Poblado": "Aguas Zarcas", "DRE": "DRE San Carlos", "Circuito": 4, "Nombre": "CTP Nataniel Arias Murillo", "COD_Presup": 4176, "LATITUD": 10.37404881, "LONGITUD": -84.34664673, "Nivel": "4 - Colegio", "Dirección": "Costado Oeste del Cementerio de Aguas Zarcas" }, "geometry": { "type": "Point", "coordinates": [ -84.346646755229571, 10.374049094346525 ] } },
{ "type": "Feature", "properties": { "Provincia": "Alajuela", "Canton": "San Carlos", "Distrito": "Aguas Zarcas", "Poblado": "Viento Fresco", "DRE": "DRE San Carlos", "Circuito": 4, "Nombre": "Viento Fresco", "COD_Presup": 5691, "LATITUD": 10.37668828, "LONGITUD": -84.32616145, "Nivel": "3 - Escuela", "Dirección": "Centro Viento Fresco de Aguas Zarcas" }, "geometry": { "type": "Point", "coordinates": [ -84.326161476854011, 10.376688582695298 ] } },
{ "type": "Feature", "properties": { "Provincia": "Alajuela", "Canton": "Upala", "Distrito": "Bijagua", "Poblado": "Bijagua", "DRE": "DRE Norte Norte", "Circuito": 4, "Nombre": "Lider de Bijagua", "COD_Presup": 3812, "LATITUD": 10.73222621, "LONGITUD": -85.05746037, "Nivel": "3 - Escuela", "Dirección": "300 metros Oeste de la iglesia católica." }, "geometry": { "type": "Point", "coordinates": [ -85.057460725519448, 10.732225935670247 ] } },
{ "type": "Feature", "properties": { "Provincia": "Alajuela", "Canton": "Upala", "Distrito": "Bijagua", "Poblado": "Asentamiento Carlos Vargas", "DRE": "DRE Norte Norte", "Circuito": 4, "Nombre": "Liceo Bijagua", "COD_Presup": 4150, "LATITUD": 10.72770157, "LONGITUD": -85.05584643, "Nivel": "4 - Colegio", "Dirección": "Del La Veterinria Bijagua 200 metros Sur." }, "geometry": { "type": "Point", "coordinates": [ -85.055846774352418, 10.727701296424836 ] } },
{ "type": "Feature", "properties": { "Provincia": "Alajuela", "Canton": "San Carlos", "Distrito": "Cutris", "Poblado": "Boca de Arenal", "DRE": "DRE San Carlos", "Circuito": 7, "Nombre": "Juan Rafael Chacón Castro", "COD_Presup": 1438, "LATITUD": 10.52738196, "LONGITUD": -84.47967333, "Nivel": "3 - Escuela", "Dirección": "150 metros Oeste de la Parroquia Boca de Arenal" }, "geometry": { "type": "Point", "coordinates": [ -84.479673488801168, 10.527382145090337 ] } },
{ "type": "Feature", "properties": { "Provincia": "Alajuela", "Canton": "San Carlos", "Distrito": "Cutris", "Poblado": "Boca de Arenal", "DRE": "DRE San Carlos", "Circuito": 7, "Nombre": "Liceo Boca de Arenal", "COD_Presup": 5532, "LATITUD": 10.53372369, "LONGITUD": -84.47831243, "Nivel": "4 - Colegio", "Dirección": "175 metros Este de la Muebleria Hermanos Salas" }, "geometry": { "type": "Point", "coordinates": [ -84.478312588658525, 10.533723879538829 ] } },
{ "type": "Feature", "properties": { "Provincia": "Alajuela", "Canton": "Guatuso", "Distrito": "Buenavista", "Poblado": "Buena Vista", "DRE": "DRE Norte Norte", "Circuito": 6, "Nombre": "San José", "COD_Presup": 3906, "LATITUD": 10.74295183, "LONGITUD": -84.83181191, "Nivel": "3 - Escuela", "Dirección": "Costado Sur de la plaza de deportes" }, "geometry": { "type": "Point", "coordinates": [ -84.831812260476397, 10.742951739462034 ] } },
{ "type": "Feature", "properties": { "Provincia": "Alajuela", "Canton": "Alfaro Ruiz", "Distrito": "Buenavista", "Poblado": "Buena Vista", "DRE": "DRE San Carlos", "Circuito": 3, "Nombre": "Buena Vista", "COD_Presup": 1444, "LATITUD": 10.275551, "LONGITUD": -84.4607674, "Nivel": "3 - Escuela", "Dirección": "25 al Sur del templo católico" }, "geometry": { "type": "Point", "coordinates": [ -84.460767351436303, 10.275551187603464 ] } },
{ "type": "Feature", "properties": { "Provincia": "Alajuela", "Canton": "Guatuso", "Distrito": "Cote", "Poblado": "Cabanga", "DRE": "DRE Norte Norte", "Circuito": 5, "Nombre": "La Cabanga", "COD_Presup": 1543, "LATITUD": 10.60889904, "LONGITUD": -84.84811396000001, "Nivel": "3 - Escuela", "Dirección": "25 metros al Este del ebais La Cabanga" }, "geometry": { "type": "Point", "coordinates": [ -84.848114205705642, 10.608898928060695 ] } },
{ "type": "Feature", "properties": { "Provincia": "Alajuela", "Canton": "Upala", "Distrito": "Upala", "Poblado": "Canalete", "DRE": "DRE Norte Norte", "Circuito": 4, "Nombre": "Sor María Romero Meneses", "COD_Presup": 3828, "LATITUD": 10.83678469, "LONGITUD": -85.04091935, "Nivel": "3 - Escuela", "Dirección": "200 metros Sur del salon comunal" }, "geometry": { "type": "Point", "coordinates": [ -85.040919785516436, 10.836784431480611 ] } },
{ "type": "Feature", "properties": { "Provincia": "Alajuela", "Canton": "Los Chiles", "Distrito": "Caño Negro", "Poblado": "Caño Negro", "DRE": "DRE Norte Norte", "Circuito": 8, "Nombre": "Leónidas Sequeira Duarte", "COD_Presup": 1452, "LATITUD": 10.89101837, "LONGITUD": -84.78591361, "Nivel": "3 - Escuela", "Dirección": "Frente a la iglesia católica" }, "geometry": { "type": "Point", "coordinates": [ -84.785914079213882, 10.891018320508779 ] } },
{ "type": "Feature", "properties": { "Provincia": "Alajuela", "Canton": "San Carlos", "Distrito": "Quesada", "Poblado": "Barrio Los Ángeles", "DRE": "DRE San Carlos", "Circuito": 3, "Nombre": "Barrio Los Ángeles", "COD_Presup": 1389, "LATITUD": 10.35569491, "LONGITUD": -84.439981, "Nivel": "3 - Escuela", "Dirección": "200 metros Noroeste 200 metros Oeste del templo católico" }, "geometry": { "type": "Point", "coordinates": [ -84.439981014146952, 10.355695116525411 ] } },
{ "type": "Feature", "properties": { "Provincia": "Alajuela", "Canton": "San Carlos", "Distrito": "Quesada", "Poblado": "San Pablo", "DRE": "DRE San Carlos", "Circuito": 3, "Nombre": "El Campo", "COD_Presup": 1417, "LATITUD": 10.34487488, "LONGITUD": -84.42808454, "Nivel": "3 - Escuela", "Dirección": "Costado Sur Urbanizacion Selva Verde B.S.Pabl" }, "geometry": { "type": "Point", "coordinates": [ -84.428084546348302, 10.344875103264192 ] } },
{ "type": "Feature", "properties": { "Provincia": "Alajuela", "Canton": "San Carlos", "Distrito": "Quesada", "Poblado": "Carmen", "DRE": "DRE San Carlos", "Circuito": 3, "Nombre": "El Carmen", "COD_Presup": 1421, "LATITUD": 10.34695484, "LONGITUD": -84.43155312, "Nivel": "3 - Escuela", "Dirección": "200 metros al Este de la Canasta Basica" }, "geometry": { "type": "Point", "coordinates": [ -84.43155312595151, 10.346955058403166 ] } },
{ "type": "Feature", "properties": { "Provincia": "Alajuela", "Canton": "San Carlos", "Distrito": "Quesada", "Poblado": "Ciudad Quesada", "DRE": "DRE San Carlos", "Circuito": 3, "Nombre": "Diocesano Padre Eladio Sancho", "COD_Presup": 1505, "LATITUD": 10.32514395, "LONGITUD": -84.42563065, "Nivel": "3 - Escuela", "Dirección": "Contigo a La Direccion Regional" }, "geometry": { "type": "Point", "coordinates": [ -84.425630640058685, 10.325144172710921 ] } },
{ "type": "Feature", "properties": { "Provincia": "Alajuela", "Canton": "San Carlos", "Distrito": "Quesada", "Poblado": "Cedral", "DRE": "DRE San Carlos", "Circuito": 3, "Nombre": "Cedral", "COD_Presup": 1513, "LATITUD": 10.36694733, "LONGITUD": -84.43697944, "Nivel": "3 - Escuela", "Dirección": "Contigo al ebais de Cedral" }, "geometry": { "type": "Point", "coordinates": [ -84.436979464288271, 10.366947544144393 ] } },
{ "type": "Feature", "properties": { "Provincia": "Alajuela", "Canton": "San Carlos", "Distrito": "Quesada", "Poblado": "Quesada", "DRE": "DRE San Carlos", "Circuito": 3, "Nombre": "Juan Chaves Rojas", "COD_Presup": 1540, "LATITUD": 10.32658345, "LONGITUD": -84.4321236, "Nivel": "3 - Escuela", "Dirección": "Costado Oeste de las oficinas de Coopelesca" }, "geometry": { "type": "Point", "coordinates": [ -84.432123594010832, 10.326583668014282 ] } },
{ "type": "Feature", "properties": { "Provincia": "Alajuela", "Canton": "San Carlos", "Distrito": "Quesada", "Poblado": "Las Mercedes", "DRE": "DRE San Carlos", "Circuito": 3, "Nombre": "Las Mercedes", "COD_Presup": 1568, "LATITUD": 10.31052998, "LONGITUD": -84.42673942, "Nivel": "3 - Escuela", "Dirección": "1 Km al Sur del Parque de Ciudad Quesada" }, "geometry": { "type": "Point", "coordinates": [ -84.426739392602215, 10.31053019421002 ] } },
{ "type": "Feature", "properties": { "Provincia": "Alajuela", "Canton": "San Carlos", "Distrito": "Quesada", "Poblado": "San Gerardo", "DRE": "DRE San Carlos", "Circuito": 3, "Nombre": "San Gerardo", "COD_Presup": 1630, "LATITUD": 10.31578729, "LONGITUD": -84.41541088, "Nivel": "3 - Escuela", "Dirección": "Frente al salon comunal de San Gerardo" }, "geometry": { "type": "Point", "coordinates": [ -84.415410855364499, 10.3157875222947 ] } },
{ "type": "Feature", "properties": { "Provincia": "Alajuela", "Canton": "San Carlos", "Distrito": "Quesada", "Poblado": "San Martín", "DRE": "DRE San Carlos", "Circuito": 3, "Nombre": "San Martín", "COD_Presup": 1639, "LATITUD": 10.31961126, "LONGITUD": -84.4240491, "Nivel": "3 - Escuela", "Dirección": "100 metros al Sur del salon comunal de San Martin" }, "geometry": { "type": "Point", "coordinates": [ -84.424049080031011, 10.319611479975418 ] } },
{ "type": "Feature", "properties": { "Provincia": "Alajuela", "Canton": "San Carlos", "Distrito": "Quesada", "Poblado": "San Roque", "DRE": "DRE San Carlos", "Circuito": 3, "Nombre": "Liceo de San Carlos", "COD_Presup": 4045, "LATITUD": 10.33687546, "LONGITUD": -84.43363529, "Nivel": "4 - Colegio", "Dirección": "1 Km Norte del Parque de Ciudad Quesada" }, "geometry": { "type": "Point", "coordinates": [ -84.433635290657847, 10.336875673400376 ] } },
{ "type": "Feature", "properties": { "Provincia": "Alajuela", "Canton": "San Carlos", "Distrito": "Quesada", "Poblado": "Ciudad Quesada", "DRE": "DRE San Carlos", "Circuito": 3, "Nombre": "Colegio Diocesano Padre Eladio Sancho", "COD_Presup": 4046, "LATITUD": 10.32514395, "LONGITUD": -84.42563065, "Nivel": "4 - Colegio", "Dirección": "Contigo a La Direccion Regional" }, "geometry": { "type": "Point", "coordinates": [ -84.425630640058685, 10.325144172710921 ] } },
{ "type": "Feature", "properties": { "Provincia": "Alajuela", "Canton": "San Carlos", "Distrito": "Quesada", "Poblado": "El Carmen", "DRE": "DRE San Carlos", "Circuito": 3, "Nombre": "CTP San Carlos", "COD_Presup": 4183, "LATITUD": 10.34849481, "LONGITUD": -84.43080362000001, "Nivel": "4 - Colegio", "Dirección": "150 metros metros Este 200 metros Noroeste del gimnasio Siglo Xxi" }, "geometry": { "type": "Point", "coordinates": [ -84.430803623104481, 10.348495029027832 ] } },
{ "type": "Feature", "properties": { "Provincia": "Alajuela", "Canton": "San Carlos", "Distrito": "Quesada", "Poblado": "Cedral", "DRE": "DRE San Carlos", "Circuito": 3, "Nombre": "Liceo Francisco Amiguette Herrera", "COD_Presup": 5075, "LATITUD": 10.36377755, "LONGITUD": -84.43490176, "Nivel": "4 - Colegio", "Dirección": "50 metros Este 200 metros Sur de la iglesia católica" }, "geometry": { "type": "Point", "coordinates": [ -84.434901780091963, 10.363777761764661 ] } },
{ "type": "Feature", "properties": { "Provincia": "Alajuela", "Canton": "San Carlos", "Distrito": "Quesada", "Poblado": "Quesada", "DRE": "DRE San Carlos", "Circuito": 3, "Nombre": "Colegio San Martín", "COD_Presup": 5677, "LATITUD": 10.31388998, "LONGITUD": -84.42058131, "Nivel": "4 - Colegio", "Dirección": "500 metros Sur 200 metros Este de la iglesia católica" }, "geometry": { "type": "Point", "coordinates": [ -84.420581292679813, 10.313890201364892 ] } },
{ "type": "Feature", "properties": { "Provincia": "Alajuela", "Canton": "San Carlos", "Distrito": "Quesada", "Poblado": "Gamonales", "DRE": "DRE San Carlos", "Circuito": 3, "Nombre": "Gamonales", "COD_Presup": 6218, "LATITUD": 10.31340591, "LONGITUD": -84.42237951, "Nivel": "3 - Escuela", "Dirección": "100 metros Este y 100 metros Sur del Colegio San Martin" }, "geometry": { "type": "Point", "coordinates": [ -84.422379490156331, 10.31340613118137 ] } },
{ "type": "Feature", "properties": { "Provincia": "Heredia", "Canton": "Sarapiquí", "Distrito": "Horquetas", "Poblado": "Colonia Victoria", "DRE": "DRE Sarapiquí", "Circuito": 2, "Nombre": "Juan Santamaría", "COD_Presup": 2123, "LATITUD": 10.32215609, "LONGITUD": -83.91567451, "Nivel": "3 - Escuela", "Dirección": "Costado Norte de la plaza de deportes" }, "geometry": { "type": "Point", "coordinates": [ -83.915674477622602, 10.322156724499335 ] } },
{ "type": "Feature", "properties": { "Provincia": "Heredia", "Canton": "Sarapiquí", "Distrito": "Horquetas", "Poblado": "Julia Araya Brenes", "DRE": "DRE Sarapiquí", "Circuito": 2, "Nombre": "Finca Once", "COD_Presup": 2245, "LATITUD": 10.32107798, "LONGITUD": -83.90254139, "Nivel": "3 - Escuela", "Dirección": "500 metrosetros E del Lice de Río FRío Frente a súper" }, "geometry": { "type": "Point", "coordinates": [ -83.902541351657604, 10.321078628452193 ] } },
{ "type": "Feature", "properties": { "Provincia": "Heredia", "Canton": "Sarapiquí", "Distrito": "Horquetas", "Poblado": "Finca 11", "DRE": "DRE Sarapiquí", "Circuito": 2, "Nombre": "Liceo de Río Frio", "COD_Presup": 4091, "LATITUD": 10.320924, "LONGITUD": -83.90684816, "Nivel": "4 - Colegio", "Dirección": "300 metros Este de la escuela Finca Ii" }, "geometry": { "type": "Point", "coordinates": [ -83.906848124559005, 10.320924644970356 ] } },
{ "type": "Feature", "properties": { "Provincia": "Heredia", "Canton": "Sarapiquí", "Distrito": "Horquetas", "Poblado": "Finca 11", "DRE": "DRE Sarapiquí", "Circuito": 2, "Nombre": "Nocturno de Río Frio", "COD_Presup": 4862, "LATITUD": 10.320924, "LONGITUD": -83.90684816, "Nivel": "4 - Colegio", "Dirección": "300 metros Oeste de la escuela Finca Once de R FRío" }, "geometry": { "type": "Point", "coordinates": [ -83.906848124559005, 10.320924644970356 ] } },
{ "type": "Feature", "properties": { "Provincia": "Heredia", "Canton": "Sarapiquí", "Distrito": "Horquetas", "Poblado": "Barrio La Victoria", "DRE": "DRE Sarapiquí", "Circuito": 2, "Nombre": "Humanístico Costarricense-Campus Sarapiquí", "COD_Presup": 0, "LATITUD": 10.31845295, "LONGITUD": -83.92308742, "Nivel": "4 - Colegio", "Dirección": "Detrás de las instalaciones de la UNA" }, "geometry": { "type": "Point", "coordinates": [ -83.92308737949277, 10.318453579209816 ] } },
{ "type": "Feature", "properties": { "Provincia": "Alajuela", "Canton": "Upala", "Distrito": "Delicias", "Poblado": "Delicias", "DRE": "DRE Norte Norte", "Circuito": 1, "Nombre": "Las Delicias", "COD_Presup": 3864, "LATITUD": 10.9552054, "LONGITUD": -85.03106353, "Nivel": "3 - Escuela", "Dirección": "Frente al Puesto Guardia Rural" }, "geometry": { "type": "Point", "coordinates": [ -85.03106407145988, 10.955205156057607 ] } },
{ "type": "Feature", "properties": { "Provincia": "Alajuela", "Canton": "Upala", "Distrito": "Delicias", "Poblado": "Delicias", "DRE": "DRE Norte Norte", "Circuito": 1, "Nombre": "Liceo Las Delicias", "COD_Presup": 5178, "LATITUD": 10.95788278, "LONGITUD": -85.03712727, "Nivel": "4 - Colegio", "Dirección": "500 metros Norte de la iglesia católica" }, "geometry": { "type": "Point", "coordinates": [ -85.037127808667663, 10.957882526889199 ] } },
{ "type": "Feature", "properties": { "Provincia": "Alajuela", "Canton": "Upala", "Distrito": "Dos Ríos", "Poblado": "Dos Ríos", "DRE": "DRE Norte Norte", "Circuito": 7, "Nombre": "Dos Ríos", "COD_Presup": 3843, "LATITUD": 10.89521517, "LONGITUD": -85.38239097, "Nivel": "3 - Escuela", "Dirección": "Frente al salon comunal,Costado Sur" }, "geometry": { "type": "Point", "coordinates": [ -85.382391469814451, 10.895214636973014 ] } },
{ "type": "Feature", "properties": { "Provincia": "Alajuela", "Canton": "Upala", "Distrito": "Dos Ríos", "Poblado": "Dos Ríos", "DRE": "DRE Norte Norte", "Circuito": 7, "Nombre": "Liceo Dos Ríos", "COD_Presup": 4913, "LATITUD": 10.89368971, "LONGITUD": -85.37989335, "Nivel": "4 - Colegio", "Dirección": "200 metros Sur de la plaza de deportes" }, "geometry": { "type": "Point", "coordinates": [ -85.379893846285583, 10.893689180769547 ] } },
{ "type": "Feature", "properties": { "Provincia": "Alajuela", "Canton": "San Carlos", "Distrito": "Florencia", "Poblado": "Florencia", "DRE": "DRE San Carlos", "Circuito": 2, "Nombre": "Carlos Maroto Quirós", "COD_Presup": 1468, "LATITUD": 10.36300319, "LONGITUD": -84.47295233, "Nivel": "3 - Escuela", "Dirección": "250 metros Norte de Repuestos Joisa.S.A." }, "geometry": { "type": "Point", "coordinates": [ -84.472952348570047, 10.363003369544648 ] } },
{ "type": "Feature", "properties": { "Provincia": "Alajuela", "Canton": "San Carlos", "Distrito": "Florencia", "Poblado": "Florencia", "DRE": "DRE San Carlos", "Circuito": 2, "Nombre": "Liceo de Florencia", "COD_Presup": 4042, "LATITUD": 10.36563444, "LONGITUD": -84.47139714, "Nivel": "4 - Colegio", "Dirección": "200 metros Este y 200 metros Noroeste de la esc.Carlos metros" }, "geometry": { "type": "Point", "coordinates": [ -84.471397167835576, 10.365634622279137 ] } },
{ "type": "Feature", "properties": { "Provincia": "Alajuela", "Canton": "Guatuso", "Distrito": "Katira", "Poblado": "La Katira", "DRE": "DRE Norte Norte", "Circuito": 6, "Nombre": "La Katira", "COD_Presup": 3841, "LATITUD": 10.74103336, "LONGITUD": -84.91431116, "Nivel": "3 - Escuela", "Dirección": "25 metros Sureste del ebais" }, "geometry": { "type": "Point", "coordinates": [ -84.914311514178578, 10.741033198238146 ] } },
{ "type": "Feature", "properties": { "Provincia": "Alajuela", "Canton": "Guatuso", "Distrito": "Katira", "Poblado": "Katira", "DRE": "DRE Norte Norte", "Circuito": 6, "Nombre": "Liceo Katira", "COD_Presup": 4149, "LATITUD": 10.73802125, "LONGITUD": -84.91389857, "Nivel": "4 - Colegio", "Dirección": "Frente al Campo Ferial de Katira" }, "geometry": { "type": "Point", "coordinates": [ -84.913898919986096, 10.738021095144312 ] } },
{ "type": "Feature", "properties": { "Provincia": "Heredia", "Canton": "Sarapiquí", "Distrito": "Llanuras del Gaspar", "Poblado": "Llanuras del Gaspar", "DRE": "DRE Sarapiquí", "Circuito": 3, "Nombre": "Liceo Rural La Aldea", "COD_Presup": 5585, "LATITUD": 10.65024727, "LONGITUD": -83.83931603000001, "Nivel": "4 - Colegio", "Dirección": "Contigo al salon comunal" }, "geometry": { "type": "Point", "coordinates": [ -83.8393162594339, 10.650247976666789 ] } },
{ "type": "Feature", "properties": { "Provincia": "Heredia", "Canton": "Sarapiquí", "Distrito": "Llanuras del Gaspar", "Poblado": "Llanueras del Gaspar", "DRE": "DRE Sarapiquí", "Circuito": 3, "Nombre": "La Aldea", "COD_Presup": 2148, "LATITUD": 10.65171849, "LONGITUD": -83.84105823, "Nivel": "3 - Escuela", "Dirección": "40 Km al Norte de Puerto Viejo" }, "geometry": { "type": "Point", "coordinates": [ -83.841058460903852, 10.651719198348296 ] } },
{ "type": "Feature", "properties": { "Provincia": "Alajuela", "Canton": "San Carlos", "Distrito": "La Fortuna", "Poblado": "La Fortuna", "DRE": "DRE San Carlos", "Circuito": 6, "Nombre": "La Fortuna", "COD_Presup": 1548, "LATITUD": 10.47217962, "LONGITUD": -84.64245608, "Nivel": "3 - Escuela", "Dirección": "Diagonal al banco popular de la Fortuna" }, "geometry": { "type": "Point", "coordinates": [ -84.642456197475269, 10.472179671866682 ] } },
{ "type": "Feature", "properties": { "Provincia": "Alajuela", "Canton": "San Carlos", "Distrito": "La Fortuna", "Poblado": "La Fortuna", "DRE": "DRE San Carlos", "Circuito": 6, "Nombre": "Finca Zeta Trece", "COD_Presup": 1593, "LATITUD": 10.46679703, "LONGITUD": -84.66170032, "Nivel": "3 - Escuela", "Dirección": "200 metros Sur del súper Cristian #4" }, "geometry": { "type": "Point", "coordinates": [ -84.66170043464102, 10.466797065733724 ] } },
{ "type": "Feature", "properties": { "Provincia": "Alajuela", "Canton": "San Carlos", "Distrito": "La Fortuna", "Poblado": "La Fortuna", "DRE": "DRE San Carlos", "Circuito": 6, "Nombre": "CTP La Fortuna", "COD_Presup": 4179, "LATITUD": 10.47246231, "LONGITUD": -84.64121424, "Nivel": "4 - Colegio", "Dirección": "Frente al banco de Costa Rica" }, "geometry": { "type": "Point", "coordinates": [ -84.641214359643854, 10.4724623600224 ] } },
{ "type": "Feature", "properties": { "Provincia": "Alajuela", "Canton": "San Carlos", "Distrito": "La Palmera", "Poblado": "La Palmera", "DRE": "DRE San Carlos", "Circuito": 4, "Nombre": "La Palmera", "COD_Presup": 1552, "LATITUD": 10.41992617, "LONGITUD": -84.38307903, "Nivel": "3 - Escuela", "Dirección": "Diagonal al templo católico de la Palmera." }, "geometry": { "type": "Point", "coordinates": [ -84.383079093123399, 10.419926431624724 ] } },
{ "type": "Feature", "properties": { "Provincia": "Alajuela", "Canton": "San Carlos", "Distrito": "La Palmera", "Poblado": "La Palmera", "DRE": "DRE San Carlos", "Circuito": 4, "Nombre": "Liceo La Palmera", "COD_Presup": 5817, "LATITUD": 10.42099507, "LONGITUD": -84.38506399000001, "Nivel": "4 - Colegio", "Dirección": "300 metros Oeste del salon comunal" }, "geometry": { "type": "Point", "coordinates": [ -84.385064059808087, 10.420995327750006 ] } },
{ "type": "Feature", "properties": { "Provincia": "Alajuela", "Canton": "San Carlos", "Distrito": "La Tigra", "Poblado": "La Tigra", "DRE": "DRE San Carlos", "Circuito": 2, "Nombre": "La Tigra", "COD_Presup": 1555, "LATITUD": 10.3399568, "LONGITUD": -84.58062022, "Nivel": "3 - Escuela", "Dirección": "Diagonal a La iglesia católica de la Tigra" }, "geometry": { "type": "Point", "coordinates": [ -84.580620225018578, 10.339956896880258 ] } },
{ "type": "Feature", "properties": { "Provincia": "Heredia", "Canton": "Sarapiquí", "Distrito": "La Virgen", "Poblado": "La Virgen", "DRE": "DRE Sarapiquí", "Circuito": 1, "Nombre": "Claudio Lara Campos", "COD_Presup": 2227, "LATITUD": 10.40091883, "LONGITUD": -84.13490207, "Nivel": "3 - Escuela", "Dirección": "Costado Sur del Parque" }, "geometry": { "type": "Point", "coordinates": [ -84.13490210727791, 10.40091928873381 ] } },
{ "type": "Feature", "properties": { "Provincia": "Alajuela", "Canton": "Los Chiles", "Distrito": "Los Chiles", "Poblado": "Los Chiles", "DRE": "DRE San Carlos", "Circuito": 9, "Nombre": "Ricardo Vargas Murillo", "COD_Presup": 1578, "LATITUD": 11.03461268, "LONGITUD": -84.71770822000001, "Nivel": "3 - Escuela", "Dirección": "Frente a Calle 0 Avenida 7" }, "geometry": { "type": "Point", "coordinates": [ -84.717708813352104, 11.034612690028537 ] } },
{ "type": "Feature", "properties": { "Provincia": "Alajuela", "Canton": "Los Chiles", "Distrito": "Los Chiles", "Poblado": "Los Chiles", "DRE": "DRE San Carlos", "Circuito": 9, "Nombre": "CTP Los Chiles", "COD_Presup": 4177, "LATITUD": 11.03431041, "LONGITUD": -84.71887165, "Nivel": "4 - Colegio", "Dirección": "400 metros Norte 100 metros Oeste de la Casa de la Cultura" }, "geometry": { "type": "Point", "coordinates": [ -84.718872239777212, 11.034310417540318 ] } },
{ "type": "Feature", "properties": { "Provincia": "Alajuela", "Canton": "Los Chiles", "Distrito": "Los Chiles", "Poblado": "Barrio de Los Ángeles", "DRE": "DRE San Carlos", "Circuito": 9, "Nombre": "Melida García Flores", "COD_Presup": 6559, "LATITUD": 11.03745918, "LONGITUD": -84.71107722000001, "Nivel": "3 - Escuela", "Dirección": "800 metros Este de las oficinas del Mag" }, "geometry": { "type": "Point", "coordinates": [ -84.711077816849851, 11.037459197682423 ] } },
{ "type": "Feature", "properties": { "Provincia": "Alajuela", "Canton": "Upala", "Distrito": "Delicias", "Poblado": "México", "DRE": "DRE Norte Norte", "Circuito": 1, "Nombre": "Rafael Alberto Sánchez Arrieta", "COD_Presup": 3868, "LATITUD": 10.99767627, "LONGITUD": -85.0643834, "Nivel": "3 - Escuela", "Dirección": "Mexico En Las Delicias de Upala" }, "geometry": { "type": "Point", "coordinates": [ -85.064383973065091, 10.997675997915302 ] } },
{ "type": "Feature", "properties": { "Provincia": "Alajuela", "Canton": "Upala", "Distrito": "Delicias", "Poblado": "México", "DRE": "DRE Norte Norte", "Circuito": 1, "Nombre": "Telesecundaria de México", "COD_Presup": 5669, "LATITUD": 10.99767627, "LONGITUD": -85.0643834, "Nivel": "4 - Colegio", "Dirección": "50 metros Oeste del ebais" }, "geometry": { "type": "Point", "coordinates": [ -85.064383973065091, 10.997675997915302 ] } },
{ "type": "Feature", "properties": { "Provincia": "Heredia", "Canton": "Sarapiquí", "Distrito": "Cureña", "Poblado": "Golfito", "DRE": "DRE Sarapiquí", "Circuito": 3, "Nombre": "San Francisco", "COD_Presup": 1386, "LATITUD": 10.59275971, "LONGITUD": -84.09055944000001, "Nivel": "3 - Escuela", "Dirección": "32 Km N del Bn de Puerto Viejo Sarapiqui" }, "geometry": { "type": "Point", "coordinates": [ -84.090559637773225, 10.592760216120979 ] } },
{ "type": "Feature", "properties": { "Provincia": "Heredia", "Canton": "Sarapiquí", "Distrito": "Cureña", "Poblado": "Golfito", "DRE": "DRE Sarapiquí", "Circuito": 3, "Nombre": "Liceo Rural La Cureña", "COD_Presup": 5974, "LATITUD": 10.59328067, "LONGITUD": -84.09081773, "Nivel": "4 - Colegio", "Dirección": "Contigo a La plaza de deportes" }, "geometry": { "type": "Point", "coordinates": [ -84.090817921462389, 10.593281176321275 ] } },
{ "type": "Feature", "properties": { "Provincia": "Alajuela", "Canton": "San Carlos", "Distrito": "Florencia", "Poblado": "Muelle San Carlos", "DRE": "DRE San Carlos", "Circuito": 2, "Nombre": "Juan Manso Estevez", "COD_Presup": 1541, "LATITUD": 10.47471052, "LONGITUD": -84.46394464, "Nivel": "3 - Escuela", "Dirección": "100 metros al Sur del templo católico" }, "geometry": { "type": "Point", "coordinates": [ -84.463944753197453, 10.474710710798606 ] } },
{ "type": "Feature", "properties": { "Provincia": "Alajuela", "Canton": "Los Chiles", "Distrito": "El Amparo", "Poblado": "Pavón", "DRE": "DRE San Carlos", "Circuito": 10, "Nombre": "El Pavón", "COD_Presup": 1559, "LATITUD": 10.83864817, "LONGITUD": -84.61798664, "Nivel": "3 - Escuela", "Dirección": "Costado Este de la iglesia católica" }, "geometry": { "type": "Point", "coordinates": [ -84.617987065160051, 10.838648252051682 ] } },
{ "type": "Feature", "properties": { "Provincia": "Alajuela", "Canton": "Los Chiles", "Distrito": "El Amparo", "Poblado": "Pavón", "DRE": "DRE San Carlos", "Circuito": 10, "Nombre": "Liceo Pavón", "COD_Presup": 4043, "LATITUD": 10.83297982, "LONGITUD": -84.62019764, "Nivel": "4 - Colegio", "Dirección": "400 metros Oeste de la gasolinera El Pavón" }, "geometry": { "type": "Point", "coordinates": [ -84.620198057978641, 10.832979903962769 ] } },
{ "type": "Feature", "properties": { "Provincia": "Alajuela", "Canton": "Guatuso", "Distrito": "Cote", "Poblado": "Pejibaye", "DRE": "DRE Norte Norte", "Circuito": 5, "Nombre": "Pejibaye", "COD_Presup": 1598, "LATITUD": 10.62297587, "LONGITUD": -84.86266065, "Nivel": "3 - Escuela", "Dirección": "Frente a la iglesia católica" }, "geometry": { "type": "Point", "coordinates": [ -84.862660901662665, 10.622975752428555 ] } },
{ "type": "Feature", "properties": { "Provincia": "Alajuela", "Canton": "San Carlos", "Distrito": "Pital", "Poblado": "Pitla", "DRE": "DRE San Carlos", "Circuito": 5, "Nombre": "Gonzalo Monge Bermúdez", "COD_Presup": 1600, "LATITUD": 10.45039351, "LONGITUD": -84.27203128, "Nivel": "3 - Escuela", "Dirección": "Contigo al Colegio de Pital" }, "geometry": { "type": "Point", "coordinates": [ -84.272031366213113, 10.450393864018078 ] } },
{ "type": "Feature", "properties": { "Provincia": "Alajuela", "Canton": "San Carlos", "Distrito": "Pital", "Poblado": "Puerto Escondido", "DRE": "DRE San Carlos", "Circuito": 5, "Nombre": "Puerto Escondido", "COD_Presup": 1688, "LATITUD": 10.46112855, "LONGITUD": -84.28609854, "Nivel": "3 - Escuela", "Dirección": "2 Km Oeste del banco nacional de Pital" }, "geometry": { "type": "Point", "coordinates": [ -84.286098639061436, 10.461128891639754 ] } },
{ "type": "Feature", "properties": { "Provincia": "Alajuela", "Canton": "San Carlos", "Distrito": "Pital", "Poblado": "Pital", "DRE": "DRE San Carlos", "Circuito": 5, "Nombre": "CTP de Pital", "COD_Presup": 4180, "LATITUD": 10.44950795, "LONGITUD": -84.27228434, "Nivel": "4 - Colegio", "Dirección": "1 Km Este del Colono Pital" }, "geometry": { "type": "Point", "coordinates": [ -84.272284424349195, 10.449508300949246 ] } },
{ "type": "Feature", "properties": { "Provincia": "Alajuela", "Canton": "Los Chiles", "Distrito": "San Jorge", "Poblado": "El Porvenir", "DRE": "DRE San Carlos", "Circuito": 10, "Nombre": "El Porvenir", "COD_Presup": 1717, "LATITUD": 10.68533137, "LONGITUD": -84.63874213, "Nivel": "3 - Escuela", "Dirección": "50 metros Este del salon comunal" }, "geometry": { "type": "Point", "coordinates": [ -84.638742429541651, 10.685331428425361 ] } },
{ "type": "Feature", "properties": { "Provincia": "Heredia", "Canton": "Sarapiquí", "Distrito": "Puerto Viejo", "Poblado": "Puerto Viejo", "DRE": "DRE Sarapiquí", "Circuito": 3, "Nombre": "Puerto Viejo", "COD_Presup": 2183, "LATITUD": 10.454876, "LONGITUD": -84.00763574, "Nivel": "3 - Escuela", "Dirección": "Contigo al salon Parroquial" }, "geometry": { "type": "Point", "coordinates": [ -84.007635817474977, 10.454876561201756 ] } },
{ "type": "Feature", "properties": { "Provincia": "Heredia", "Canton": "Sarapiquí", "Distrito": "Puerto Viejo", "Poblado": "Puerto Viejo", "DRE": "DRE Sarapiquí", "Circuito": 3, "Nombre": "CTP Puerto Viejo", "COD_Presup": 4193, "LATITUD": 10.46361163, "LONGITUD": -84.00577462, "Nivel": "4 - Colegio", "Dirección": "800 metros Norte de Agencia BN" }, "geometry": { "type": "Point", "coordinates": [ -84.005774709515705, 10.463612199842624 ] } },
{ "type": "Feature", "properties": { "Provincia": "Heredia", "Canton": "Sarapiquí", "Distrito": "Horquetas", "Poblado": "Puerto Viejo", "DRE": "DRE Sarapiquí", "Circuito": 3, "Nombre": "Nocturno de Puerto Viejo", "COD_Presup": 5929, "LATITUD": 10.46540626, "LONGITUD": -84.00560674, "Nivel": "4 - Colegio", "Dirección": "1 Km Norte del banco nacional" }, "geometry": { "type": "Point", "coordinates": [ -84.005606829689967, 10.465406830204989 ] } },
{ "type": "Feature", "properties": { "Provincia": "Alajuela", "Canton": "Grecia", "Distrito": "Río Cuarto", "Poblado": "Río Cuarto", "DRE": "DRE San Carlos", "Circuito": 1, "Nombre": "Río Cuarto", "COD_Presup": 1613, "LATITUD": 10.34346716, "LONGITUD": -84.21565823, "Nivel": "3 - Escuela", "Dirección": "Costado Norte de la Cruz Roja de Río Cuarto" }, "geometry": { "type": "Point", "coordinates": [ -84.215658226878503, 10.343467555778256 ] } },
{ "type": "Feature", "properties": { "Provincia": "Alajuela", "Canton": "Grecia", "Distrito": "Río Cuarto", "Poblado": "Río Cuarto", "DRE": "DRE San Carlos", "Circuito": 1, "Nombre": "Liceo La Amistad", "COD_Presup": 5994, "LATITUD": 10.34714217, "LONGITUD": -84.21316183, "Nivel": "4 - Colegio", "Dirección": "600 metros Norte de la iglesia católica" }, "geometry": { "type": "Point", "coordinates": [ -84.213161826240153, 10.347142560655348 ] } },
{ "type": "Feature", "properties": { "Provincia": "Heredia", "Canton": "Sarapiquí", "Distrito": "Horquetas", "Poblado": "Finca Seis", "DRE": "DRE Sarapiquí", "Circuito": 2, "Nombre": "Finca Seis", "COD_Presup": 2236, "LATITUD": 10.32114943, "LONGITUD": -83.88545577, "Nivel": "3 - Escuela", "Dirección": "200 metros Este y 50 metros N del Bncr Finca Seis" }, "geometry": { "type": "Point", "coordinates": [ -83.885455736120832, 10.321150091023144 ] } },
{ "type": "Feature", "properties": { "Provincia": "Heredia", "Canton": "Sarapiquí", "Distrito": "Horquetas", "Poblado": "Finca Cuatro", "DRE": "DRE Sarapiquí", "Circuito": 2, "Nombre": "Finca Cuatro", "COD_Presup": 2237, "LATITUD": 10.33078365, "LONGITUD": -83.88135345000001, "Nivel": "3 - Escuela", "Dirección": "Costado Norte del salon comunal" }, "geometry": { "type": "Point", "coordinates": [ -83.881353419619487, 10.330784315770257 ] } },
{ "type": "Feature", "properties": { "Provincia": "Alajuela", "Canton": "Upala", "Distrito": "Yolillal", "Poblado": "San Isidro", "DRE": "DRE Norte Norte", "Circuito": 1, "Nombre": "San Isidro", "COD_Presup": 3892, "LATITUD": 10.92370644, "LONGITUD": -84.96656981, "Nivel": "3 - Escuela", "Dirección": "Contigo al Puesto de Policia de San Isidro Y" }, "geometry": { "type": "Point", "coordinates": [ -84.966570320651968, 10.923706246114604 ] } },
{ "type": "Feature", "properties": { "Provincia": "Alajuela", "Canton": "Upala", "Distrito": "Yolillal", "Poblado": "San Jorge", "DRE": "DRE Norte Norte", "Circuito": 8, "Nombre": "San Jorge", "COD_Presup": 3894, "LATITUD": 10.87639591, "LONGITUD": -84.91393112, "Nivel": "3 - Escuela", "Dirección": "50 metros Este y 50 metros Norte del templo católico" }, "geometry": { "type": "Point", "coordinates": [ -84.913931587299274, 10.876395757699274 ] } },
{ "type": "Feature", "properties": { "Provincia": "Alajuela", "Canton": "Los Chiles", "Distrito": "San Jorge", "Poblado": "San Jorge", "DRE": "DRE San Carlos", "Circuito": 10, "Nombre": "Colonia Guanacaste", "COD_Presup": 1684, "LATITUD": 10.71591528, "LONGITUD": -84.67804717, "Nivel": "3 - Escuela", "Dirección": "Frente al ebais de San Jorge De los Chiles" }, "geometry": { "type": "Point", "coordinates": [ -84.678047495847906, 10.715915306813619 ] } },
{ "type": "Feature", "properties": { "Provincia": "Alajuela", "Canton": "Los Chiles", "Distrito": "El Amparo", "Poblado": "San José del Amparo", "DRE": "DRE San Carlos", "Circuito": 10, "Nombre": "San José", "COD_Presup": 1506, "LATITUD": 10.85026856, "LONGITUD": -84.66872171, "Nivel": "3 - Escuela", "Dirección": "5 Km Oeste de la entrada A Santa Cecilia" }, "geometry": { "type": "Point", "coordinates": [ -84.668722146115797, 10.850268606649925 ] } },
{ "type": "Feature", "properties": { "Provincia": "Alajuela", "Canton": "Los Chiles", "Distrito": "El Amparo", "Poblado": "San José", "DRE": "DRE San Carlos", "Circuito": 10, "Nombre": "Liceo San José del Ampero", "COD_Presup": 6565, "LATITUD": 10.84975299, "LONGITUD": -84.6691991, "Nivel": "4 - Colegio", "Dirección": "Salon comunal Frente al Cencinai" }, "geometry": { "type": "Point", "coordinates": [ -84.66919953173182, 10.84975303063478 ] } },
{ "type": "Feature", "properties": { "Provincia": "Alajuela", "Canton": "Upala", "Distrito": "San José", "Poblado": "San José", "DRE": "DRE Norte Norte", "Circuito": 3, "Nombre": "San José", "COD_Presup": 3895, "LATITUD": 10.95555308, "LONGITUD": -85.1313512, "Nivel": "3 - Escuela", "Dirección": "150 metros metros Este de súper La Familia" }, "geometry": { "type": "Point", "coordinates": [ -85.131351736169918, 10.955552751510217 ] } },
{ "type": "Feature", "properties": { "Provincia": "Alajuela", "Canton": "Upala", "Distrito": "San José", "Poblado": "La Unión", "DRE": "DRE Norte Norte", "Circuito": 3, "Nombre": "La Unión", "COD_Presup": 3924, "LATITUD": 10.96464708, "LONGITUD": -85.13771131, "Nivel": "3 - Escuela", "Dirección": "La Union de San José de Upala" }, "geometry": { "type": "Point", "coordinates": [ -85.137711854843758, 10.964646750473207 ] } },
{ "type": "Feature", "properties": { "Provincia": "Alajuela", "Canton": "Upala", "Distrito": "San José", "Poblado": "La Unión", "DRE": "DRE Norte Norte", "Circuito": 3, "Nombre": "Liceo San José", "COD_Presup": 4151, "LATITUD": 10.96213014, "LONGITUD": -85.13194041, "Nivel": "4 - Colegio", "Dirección": "75 metros Noreste de la entrada A La Camelias" }, "geometry": { "type": "Point", "coordinates": [ -85.131940951553332, 10.96212981313408 ] } },
{ "type": "Feature", "properties": { "Provincia": "Alajuela", "Canton": "Upala", "Distrito": "San José", "Poblado": "La Victoria", "DRE": "DRE Norte Norte", "Circuito": 3, "Nombre": "IEGB La Victoria", "COD_Presup": 6157, "LATITUD": 10.96464708, "LONGITUD": -85.13771131, "Nivel": "4 - Colegio", "Dirección": "5 Km al Norte de San José de Upala" }, "geometry": { "type": "Point", "coordinates": [ -85.137711854843758, 10.964646750473207 ] } },
{ "type": "Feature", "properties": { "Provincia": "Alajuela", "Canton": "Alajuela", "Distrito": "Sarapiquí", "Poblado": "San Miguel", "DRE": "DRE Sarapiquí", "Circuito": 1, "Nombre": "Luis Demetrio Tinoco", "COD_Presup": 1617, "LATITUD": 10.31491542, "LONGITUD": -84.18221277000001, "Nivel": "3 - Escuela", "Dirección": "Contigo a La sucursal del banco nacional" }, "geometry": { "type": "Point", "coordinates": [ -84.182212741993297, 10.314915841241509 ] } },
{ "type": "Feature", "properties": { "Provincia": "Alajuela", "Canton": "Guatuso", "Distrito": "San Rafael", "Poblado": "San Rafael", "DRE": "DRE Norte Norte", "Circuito": 5, "Nombre": "San Rafael", "COD_Presup": 1659, "LATITUD": 10.67232994, "LONGITUD": -84.82060168, "Nivel": "3 - Escuela", "Dirección": "125 metros al Sur de la iglesia católica" }, "geometry": { "type": "Point", "coordinates": [ -84.820601975230701, 10.672329851254176 ] } },
{ "type": "Feature", "properties": { "Provincia": "Alajuela", "Canton": "Guatuso", "Distrito": "San Rafael", "Poblado": "San Rafael", "DRE": "DRE Norte Norte", "Circuito": 5, "Nombre": "CTP Guatuso", "COD_Presup": 4181, "LATITUD": 10.6669084, "LONGITUD": -84.82177557, "Nivel": "4 - Colegio", "Dirección": "100 metros Sur del banco nacional" }, "geometry": { "type": "Point", "coordinates": [ -84.821775861907767, 10.666908308513763 ] } },
{ "type": "Feature", "properties": { "Provincia": "Alajuela", "Canton": "Grecia", "Distrito": "Río Cuarto", "Poblado": "Santa Isabel", "DRE": "DRE San Carlos", "Circuito": 1, "Nombre": "Santa Isabel", "COD_Presup": 1662, "LATITUD": 10.45534079, "LONGITUD": -84.20104421000001, "Nivel": "3 - Escuela", "Dirección": "300 metros al Norte de la plaza de deportes" }, "geometry": { "type": "Point", "coordinates": [ -84.201044301587743, 10.455341196783648 ] } },
{ "type": "Feature", "properties": { "Provincia": "Alajuela", "Canton": "Grecia", "Distrito": "Río Cuarto", "Poblado": "Santa Rita", "DRE": "DRE San Carlos", "Circuito": 1, "Nombre": "Santa Rita", "COD_Presup": 1663, "LATITUD": 10.40573943, "LONGITUD": -84.22101904, "Nivel": "3 - Escuela", "Dirección": "Contigo al salon comunal de Santa Rita" }, "geometry": { "type": "Point", "coordinates": [ -84.22101908945649, 10.405739819352386 ] } },
{ "type": "Feature", "properties": { "Provincia": "Alajuela", "Canton": "Grecia", "Distrito": "Río Cuarto", "Poblado": "Santa Rita", "DRE": "DRE San Carlos", "Circuito": 1, "Nombre": "Liceo Santa Rita", "COD_Presup": 4044, "LATITUD": 10.40670784, "LONGITUD": -84.21663532, "Nivel": "4 - Colegio", "Dirección": "Contigo al ebais" }, "geometry": { "type": "Point", "coordinates": [ -84.216635364550825, 10.406708238081835 ] } },
{ "type": "Feature", "properties": { "Provincia": "Alajuela", "Canton": "San Carlos", "Distrito": "Pocosol", "Poblado": "Santa Rosa", "DRE": "DRE San Carlos", "Circuito": 8, "Nombre": "Santa Rosa", "COD_Presup": 1664, "LATITUD": 10.62408259, "LONGITUD": -84.52819423, "Nivel": "3 - Escuela", "Dirección": "Costado Norte del Parque de Santa Rosa" }, "geometry": { "type": "Point", "coordinates": [ -84.528194472795661, 10.624082734741446 ] } },
{ "type": "Feature", "properties": { "Provincia": "Alajuela", "Canton": "San Carlos", "Distrito": "Pocosol", "Poblado": "Santa Rosa", "DRE": "DRE San Carlos", "Circuito": 8, "Nombre": "CTP Santa Rosa", "COD_Presup": 4182, "LATITUD": 10.62793089, "LONGITUD": -84.53496606, "Nivel": "4 - Colegio", "Dirección": "800 metros al Oeste del Parque de Santa Rosa" }, "geometry": { "type": "Point", "coordinates": [ -84.534966307792331, 10.627931038451806 ] } },
{ "type": "Feature", "properties": { "Provincia": "Alajuela", "Canton": "San Carlos", "Distrito": "Pocosol", "Poblado": "Buena Vista", "DRE": "DRE San Carlos", "Circuito": 8, "Nombre": "Jamaica", "COD_Presup": 4899, "LATITUD": 10.61403411, "LONGITUD": -84.53258709000001, "Nivel": "3 - Escuela", "Dirección": "Antiguo Refugio Santa Rosa de Pocosol" }, "geometry": { "type": "Point", "coordinates": [ -84.532587319373121, 10.614034258476659 ] } },
{ "type": "Feature", "properties": { "Provincia": "Alajuela", "Canton": "San Carlos", "Distrito": "Pocosol", "Poblado": "Santa María", "DRE": "DRE San Carlos", "Circuito": 8, "Nombre": "Santa María", "COD_Presup": 1723, "LATITUD": 10.6388886, "LONGITUD": -84.51980013, "Nivel": "3 - Escuela", "Dirección": "Frente a la plaza de deportes" }, "geometry": { "type": "Point", "coordinates": [ -84.519800379979841, 10.638888753525679 ] } },
{ "type": "Feature", "properties": { "Provincia": "Alajuela", "Canton": "San Carlos", "Distrito": "Monterrey", "Poblado": "Santo Domingo", "DRE": "DRE San Carlos", "Circuito": 11, "Nombre": "Domingo Vargas Aguilar", "COD_Presup": 1667, "LATITUD": 10.55484451, "LONGITUD": -84.64867407, "Nivel": "3 - Escuela", "Dirección": "Costado Este de la iglesia católica" }, "geometry": { "type": "Point", "coordinates": [ -84.648674258080874, 10.554844560064657 ] } },
{ "type": "Feature", "properties": { "Provincia": "Alajuela", "Canton": "San Carlos", "Distrito": "Monterrey", "Poblado": "Santo Domingo", "DRE": "DRE San Carlos", "Circuito": 11, "Nombre": "Liceo Nicolas Aguilar Murillo", "COD_Presup": 5304, "LATITUD": 10.55565932, "LONGITUD": -84.65463743, "Nivel": "4 - Colegio", "Dirección": "Contigo al ebais Monterrey de San Carlos" }, "geometry": { "type": "Point", "coordinates": [ -84.654637622511231, 10.55565936722099 ] } },
{ "type": "Feature", "properties": { "Provincia": "Alajuela", "Canton": "Upala", "Distrito": "Upala", "Poblado": "Los Ángeles", "DRE": "DRE Norte Norte", "Circuito": 1, "Nombre": "Nahuatl", "COD_Presup": 3839, "LATITUD": 10.90058716, "LONGITUD": -85.00564364, "Nivel": "3 - Escuela", "Dirección": "Costado Sur del redondel de Upala" }, "geometry": { "type": "Point", "coordinates": [ -85.005644126920259, 10.900586930852469 ] } },
{ "type": "Feature", "properties": { "Provincia": "Alajuela", "Canton": "Upala", "Distrito": "Upala", "Poblado": "Upala", "DRE": "DRE Norte Norte", "Circuito": 1, "Nombre": "Teodoro Picado Michalsky", "COD_Presup": 3908, "LATITUD": 10.89847624, "LONGITUD": -85.01554103, "Nivel": "3 - Escuela", "Dirección": "Del Restaurante El Fogon 125 metros Norte" }, "geometry": { "type": "Point", "coordinates": [ -85.01554152266074, 10.898476000987529 ] } },
{ "type": "Feature", "properties": { "Provincia": "Alajuela", "Canton": "Upala", "Distrito": "Upala", "Poblado": "Upala", "DRE": "DRE Norte Norte", "Circuito": 1, "Nombre": "CTP de Upala", "COD_Presup": 4232, "LATITUD": 10.89890204, "LONGITUD": -85.02347594, "Nivel": "4 - Colegio", "Dirección": "75 metros Norte del hospital de Upala" }, "geometry": { "type": "Point", "coordinates": [ -85.023476430041086, 10.898901796962775 ] } },
{ "type": "Feature", "properties": { "Provincia": "Alajuela", "Canton": "San Carlos", "Distrito": "Venado", "Poblado": "Venado", "DRE": "DRE San Carlos", "Circuito": 11, "Nombre": "Entre Ríos", "COD_Presup": 1529, "LATITUD": 10.55730734, "LONGITUD": -84.74922755, "Nivel": "3 - Escuela", "Dirección": "100 metros Norte del súper La Pachanga" }, "geometry": { "type": "Point", "coordinates": [ -84.749227744043694, 10.557307303577737 ] } },
{ "type": "Feature", "properties": { "Provincia": "Alajuela", "Canton": "San Carlos", "Distrito": "Venado", "Poblado": "Venado", "DRE": "DRE San Carlos", "Circuito": 11, "Nombre": "Liceo Rural El Venado", "COD_Presup": 5854, "LATITUD": 10.55565424, "LONGITUD": -84.74874903, "Nivel": "4 - Colegio", "Dirección": "Costado Este del salon comunal" }, "geometry": { "type": "Point", "coordinates": [ -84.74874922119902, 10.555654210950092 ] } },
{ "type": "Feature", "properties": { "Provincia": "Alajuela", "Canton": "San Carlos", "Distrito": "Venecia", "Poblado": "Venecia", "DRE": "DRE San Carlos", "Circuito": 1, "Nombre": "José María Vargas Arias", "COD_Presup": 1671, "LATITUD": 10.35381679, "LONGITUD": -84.27282758, "Nivel": "3 - Escuela", "Dirección": "Costado Sur de la Casa Parroquial Venecia" }, "geometry": { "type": "Point", "coordinates": [ -84.2728275884825, 10.353817132141437 ] } },
{ "type": "Feature", "properties": { "Provincia": "Alajuela", "Canton": "San Carlos", "Distrito": "Venecia", "Poblado": "San Martín", "DRE": "DRE San Carlos", "Circuito": 1, "Nombre": "CTP de Venecia", "COD_Presup": 4178, "LATITUD": 10.34999672, "LONGITUD": -84.26474946, "Nivel": "4 - Colegio", "Dirección": "1 Km Este del Servicentro Venecia" }, "geometry": { "type": "Point", "coordinates": [ -84.264749460565795, 10.349997074271222 ] } },
{ "type": "Feature", "properties": { "Provincia": "Alajuela", "Canton": "San Carlos", "Distrito": "Venecia", "Poblado": "San Martín", "DRE": "DRE San Carlos", "Circuito": 1, "Nombre": "San Martín", "COD_Presup": 5862, "LATITUD": 10.34639515, "LONGITUD": -84.26539152, "Nivel": "3 - Escuela", "Dirección": "400 metros al Sur del Ctp de Venecia" }, "geometry": { "type": "Point", "coordinates": [ -84.265391521053076, 10.346395497344419 ] } },
{ "type": "Feature", "properties": { "Provincia": "Guanacaste", "Canton": "Nandayure", "Distrito": "Porvenir", "Poblado": "Ángeles", "DRE": "DRE Nicoya", "Circuito": 8, "Nombre": "Los Ángeles", "COD_Presup": 2412, "LATITUD": 9.9005586, "LONGITUD": -85.28128549, "Nivel": "3 - Escuela", "Dirección": "Costado Sur de la plaza de Futbol Los Ángeles" }, "geometry": { "type": "Point", "coordinates": [ -85.281285159360294, 9.900558102991505 ] } },
{ "type": "Feature", "properties": { "Provincia": "Guanacaste", "Canton": "Nandayure", "Distrito": "Porvenir", "Poblado": "Los Ángeles", "DRE": "DRE Nicoya", "Circuito": 8, "Nombre": "Liceo Los Ángeles", "COD_Presup": 6375, "LATITUD": 9.90443725, "LONGITUD": -85.28265645, "Nivel": "4 - Colegio", "Dirección": "600 metros de la iglesia católica" }, "geometry": { "type": "Point", "coordinates": [ -85.282656124908712, 9.904436756977137 ] } },
{ "type": "Feature", "properties": { "Provincia": "Guanacaste", "Canton": "Bagaces", "Distrito": "Bagaces", "Poblado": "Bagaces", "DRE": "DRE Liberia", "Circuito": 3, "Nombre": "General Tomás Guardia", "COD_Presup": 2257, "LATITUD": 10.52546533, "LONGITUD": -85.25519035000001, "Nivel": "3 - Escuela", "Dirección": "Frente al Parque Medardo Guido Acevedo" }, "geometry": { "type": "Point", "coordinates": [ -85.255190536113133, 10.525464885153248 ] } },
{ "type": "Feature", "properties": { "Provincia": "Guanacaste", "Canton": "Bagaces", "Distrito": "Bagaces", "Poblado": "Bagaces", "DRE": "DRE Liberia", "Circuito": 3, "Nombre": "Colegio de Bagaces", "COD_Presup": 4101, "LATITUD": 10.52889899, "LONGITUD": -85.25244321, "Nivel": "4 - Colegio", "Dirección": "50 metros Oeste y 175 metros Norte Gimnacio Municipal de Bagaces" }, "geometry": { "type": "Point", "coordinates": [ -85.252443398272334, 10.528898546902745 ] } },
{ "type": "Feature", "properties": { "Provincia": "Guanacaste", "Canton": "Bagaces", "Distrito": "Bagaces", "Poblado": "Bagaces", "DRE": "DRE Liberia", "Circuito": 3, "Nombre": "Nocturno de Bagaces", "COD_Presup": 6475, "LATITUD": 10.52889899, "LONGITUD": -85.25244321, "Nivel": "4 - Colegio", "Dirección": "50 metros Oeste y 175 metros Norte Gimnacio Municipal de Bagaces" }, "geometry": { "type": "Point", "coordinates": [ -85.252443398272334, 10.528898546902745 ] } },
{ "type": "Feature", "properties": { "Provincia": "Guanacaste", "Canton": "Cañas", "Distrito": "Bebedero", "Poblado": "Bebedero", "DRE": "DRE Cañas", "Circuito": 1, "Nombre": "Bebedero", "COD_Presup": 2606, "LATITUD": 10.36944372, "LONGITUD": -85.19384251, "Nivel": "3 - Escuela", "Dirección": "150 metros Oeste del salon comunal" }, "geometry": { "type": "Point", "coordinates": [ -85.193842572186568, 10.369443314801538 ] } },
{ "type": "Feature", "properties": { "Provincia": "Guanacaste", "Canton": "Cañas", "Distrito": "Bebedero", "Poblado": "Urbanización Las Lomas", "DRE": "DRE Cañas", "Circuito": 1, "Nombre": "Liceo Rural Bebedero", "COD_Presup": 5645, "LATITUD": 10.37360123, "LONGITUD": -85.18588971, "Nivel": "4 - Colegio", "Dirección": "150 metros metros Este del ebais" }, "geometry": { "type": "Point", "coordinates": [ -85.185889769910929, 10.373600831179537 ] } },
{ "type": "Feature", "properties": { "Provincia": "Guanacaste", "Canton": "Nandayure", "Distrito": "Bejuco", "Poblado": "Bejuco", "DRE": "DRE Nicoya", "Circuito": 8, "Nombre": "Bejuco", "COD_Presup": 2350, "LATITUD": 9.851759, "LONGITUD": -85.32906752, "Nivel": "3 - Escuela", "Dirección": "Costado Oeste de la plaza de deportes" }, "geometry": { "type": "Point", "coordinates": [ -85.329067158874707, 9.851758471112191 ] } },
{ "type": "Feature", "properties": { "Provincia": "Guanacaste", "Canton": "Carrillo", "Distrito": "Belén", "Poblado": "Belén", "DRE": "DRE Santa Cruz", "Circuito": 5, "Nombre": "Belén", "COD_Presup": 2512, "LATITUD": 10.40809438, "LONGITUD": -85.58599141000001, "Nivel": "3 - Escuela", "Dirección": "Costado Oeste de la iglesia católica" }, "geometry": { "type": "Point", "coordinates": [ -85.585991516190887, 10.408093657353341 ] } },
{ "type": "Feature", "properties": { "Provincia": "Guanacaste", "Canton": "Carrillo", "Distrito": "Belén", "Poblado": "La Villita", "DRE": "DRE Santa Cruz", "Circuito": 5, "Nombre": "La Villita", "COD_Presup": 2513, "LATITUD": 10.40536087, "LONGITUD": -85.59088731, "Nivel": "3 - Escuela", "Dirección": "Costado Norte de la plaza de Futball" }, "geometry": { "type": "Point", "coordinates": [ -85.590887408401784, 10.405360148425336 ] } },
{ "type": "Feature", "properties": { "Provincia": "Guanacaste", "Canton": "Carrillo", "Distrito": "Belén", "Poblado": "Belén", "DRE": "DRE Santa Cruz", "Circuito": 5, "Nombre": "Liceo Belén", "COD_Presup": 4109, "LATITUD": 10.4106051, "LONGITUD": -85.58298029, "Nivel": "4 - Colegio", "Dirección": "De la Soda Matapalo 500 N.Y 50 metros Sur" }, "geometry": { "type": "Point", "coordinates": [ -85.582980399473982, 10.410604381353238 ] } },
{ "type": "Feature", "properties": { "Provincia": "Guanacaste", "Canton": "Nicoya", "Distrito": "Belén de Nosarita", "Poblado": "Belén", "DRE": "DRE Nicoya", "Circuito": 2, "Nombre": "Liceo Belén", "COD_Presup": 5850, "LATITUD": 10.03283495, "LONGITUD": -85.50555402000001, "Nivel": "4 - Colegio", "Dirección": "150 metros Noroeste del Cementerio de Belen" }, "geometry": { "type": "Point", "coordinates": [ -85.505553813857233, 10.032834280865496 ] } },
{ "type": "Feature", "properties": { "Provincia": "Guanacaste", "Canton": "Nicoya", "Distrito": "Nosara", "Poblado": "Bocas de Nosara", "DRE": "DRE Nicoya", "Circuito": 6, "Nombre": "Serapio López Fajardo", "COD_Presup": 2358, "LATITUD": 9.98051682, "LONGITUD": -85.65097767, "Nivel": "3 - Escuela", "Dirección": "Frente a la plaza de deportes" }, "geometry": { "type": "Point", "coordinates": [ -85.650977425577466, 9.980516029868507 ] } },
{ "type": "Feature", "properties": { "Provincia": "Guanacaste", "Canton": "Nicoya", "Distrito": "Nosara", "Poblado": "Santa Teresita", "DRE": "DRE Nicoya", "Circuito": 6, "Nombre": "Colegio Bocas de Nosara", "COD_Presup": 4104, "LATITUD": 9.97997957, "LONGITUD": -85.6338962, "Nivel": "4 - Colegio", "Dirección": "Frente a la Soda Porchotes" }, "geometry": { "type": "Point", "coordinates": [ -85.633895955836806, 9.979978799529782 ] } },
{ "type": "Feature", "properties": { "Provincia": "Guanacaste", "Canton": "Nicoya", "Distrito": "Nosara", "Poblado": "Santa Teresita", "DRE": "DRE Nicoya", "Circuito": 6, "Nombre": "Santa Teresita", "COD_Presup": 5320, "LATITUD": 9.98066021, "LONGITUD": -85.63370617, "Nivel": "3 - Escuela", "Dirección": "75 metros al Este del Colegio" }, "geometry": { "type": "Point", "coordinates": [ -85.633705923761568, 9.980659434374475 ] } },
{ "type": "Feature", "properties": { "Provincia": "Guanacaste", "Canton": "Santa Cruz", "Distrito": "Bolsón", "Poblado": "Bolson", "DRE": "DRE Santa Cruz", "Circuito": 7, "Nombre": "Bolson", "COD_Presup": 2515, "LATITUD": 10.36120372, "LONGITUD": -85.44871728, "Nivel": "3 - Escuela", "Dirección": "Frente a plaza de deportes" }, "geometry": { "type": "Point", "coordinates": [ -85.448717337142995, 10.361203110724659 ] } },
{ "type": "Feature", "properties": { "Provincia": "Guanacaste", "Canton": "Santa Cruz", "Distrito": "Cabo Velas", "Poblado": "Brasilito", "DRE": "DRE Santa Cruz", "Circuito": 3, "Nombre": "Brasilito", "COD_Presup": 2516, "LATITUD": 10.40752489, "LONGITUD": -85.7965832, "Nivel": "3 - Escuela", "Dirección": "Frente a la plaza deportes, Playa Brasilito" }, "geometry": { "type": "Point", "coordinates": [ -85.796583314116944, 10.407523998864207 ] } },
{ "type": "Feature", "properties": { "Provincia": "Guanacaste", "Canton": "Nandayure", "Distrito": "Carmona", "Poblado": "Colonia", "DRE": "DRE Nicoya", "Circuito": 7, "Nombre": "Presbítero José Daniel Carmona Briceno", "COD_Presup": 2368, "LATITUD": 9.99394376, "LONGITUD": -85.25263439, "Nivel": "3 - Escuela", "Dirección": "Costado Sur del Parque" }, "geometry": { "type": "Point", "coordinates": [ -85.25263413683021, 9.993943293745376 ] } },
{ "type": "Feature", "properties": { "Provincia": "Guanacaste", "Canton": "Nandayure", "Distrito": "Carmona", "Poblado": "Carmona", "DRE": "DRE Nicoya", "Circuito": 7, "Nombre": "CTP de Nandayure", "COD_Presup": 4196, "LATITUD": 10.00917909, "LONGITUD": -85.25582254, "Nivel": "4 - Colegio", "Dirección": "400 metros Este del Cementerio Carmona" }, "geometry": { "type": "Point", "coordinates": [ -85.255822298879693, 10.009178622505294 ] } },
{ "type": "Feature", "properties": { "Provincia": "Guanacaste", "Canton": "Santa Cruz", "Distrito": "Cartagena", "Poblado": "Cartagena", "DRE": "DRE Santa Cruz", "Circuito": 3, "Nombre": "Cartagena", "COD_Presup": 2511, "LATITUD": 10.38023114, "LONGITUD": -85.67501392, "Nivel": "3 - Escuela", "Dirección": "250 metros Sur de la Gar" }, "geometry": { "type": "Point", "coordinates": [ -85.675014008074939, 10.380230346314983 ] } },
{ "type": "Feature", "properties": { "Provincia": "Guanacaste", "Canton": "Cañas", "Distrito": "Cañas", "Poblado": "Las Palmas", "DRE": "DRE Cañas", "Circuito": 1, "Nombre": "Las Palmas", "COD_Presup": 2601, "LATITUD": 10.43590705, "LONGITUD": -85.09488607, "Nivel": "3 - Escuela", "Dirección": "Contigo a La plaza de deportes" }, "geometry": { "type": "Point", "coordinates": [ -85.094886174107998, 10.435906734982899 ] } },
{ "type": "Feature", "properties": { "Provincia": "Guanacaste", "Canton": "Cañas", "Distrito": "Cañas", "Poblado": "San Martín", "DRE": "DRE Cañas", "Circuito": 1, "Nombre": "Antonio Obando Espinoza", "COD_Presup": 2604, "LATITUD": 10.42764484, "LONGITUD": -85.09678516, "Nivel": "3 - Escuela", "Dirección": "200 metros Oeste de la plaza de Toros Chorotega" }, "geometry": { "type": "Point", "coordinates": [ -85.09678525643227, 10.427644522799225 ] } },
{ "type": "Feature", "properties": { "Provincia": "Guanacaste", "Canton": "Cañas", "Distrito": "Cañas", "Poblado": "Cañas", "DRE": "DRE Cañas", "Circuito": 1, "Nombre": "Monseñor Luis Leipold", "COD_Presup": 2613, "LATITUD": 10.42912909, "LONGITUD": -85.0915544, "Nivel": "3 - Escuela", "Dirección": "Frente a la plaza Colon Cañas Centro" }, "geometry": { "type": "Point", "coordinates": [ -85.09155450103016, 10.429128777926348 ] } },
{ "type": "Feature", "properties": { "Provincia": "Guanacaste", "Canton": "Cañas", "Distrito": "Cañas", "Poblado": "Urbanización Las Cañas", "DRE": "DRE Cañas", "Circuito": 1, "Nombre": "Invu Las Cañas", "COD_Presup": 2625, "LATITUD": 10.42323504, "LONGITUD": -85.10108038, "Nivel": "3 - Escuela", "Dirección": "600 metros Oeste y 75 metros SurDel Cementerio" }, "geometry": { "type": "Point", "coordinates": [ -85.10108048179309, 10.423234719501995 ] } },
{ "type": "Feature", "properties": { "Provincia": "Guanacaste", "Canton": "Cañas", "Distrito": "Cañas", "Poblado": "San Cristobal", "DRE": "DRE Cañas", "Circuito": 1, "Nombre": "San Cristobal", "COD_Presup": 2664, "LATITUD": 10.42227686, "LONGITUD": -85.09006086, "Nivel": "3 - Escuela", "Dirección": "300 metros Sur de la Cruz Roja" }, "geometry": { "type": "Point", "coordinates": [ -85.090060953340739, 10.422276548220323 ] } },
{ "type": "Feature", "properties": { "Provincia": "Guanacaste", "Canton": "Cañas", "Distrito": "Cañas", "Poblado": "Cañas", "DRE": "DRE Cañas", "Circuito": 1, "Nombre": "Liceo Miguel Araya Venegas", "COD_Presup": 4111, "LATITUD": 10.42819154, "LONGITUD": -85.08667131, "Nivel": "4 - Colegio", "Dirección": "Frente a las Instalaciones del Polideportivo" }, "geometry": { "type": "Point", "coordinates": [ -85.08667140761348, 10.428191230865606 ] } },
{ "type": "Feature", "properties": { "Provincia": "Guanacaste", "Canton": "Cañas", "Distrito": "Cañas", "Poblado": "Cañas", "DRE": "DRE Cañas", "Circuito": 1, "Nombre": "Nocturno Juan Santamaría", "COD_Presup": 4875, "LATITUD": 10.42819154, "LONGITUD": -85.08667131, "Nivel": "4 - Colegio", "Dirección": "Frente a las Instalaciones del Polideportivo" }, "geometry": { "type": "Point", "coordinates": [ -85.08667140761348, 10.428191230865606 ] } },
{ "type": "Feature", "properties": { "Provincia": "Guanacaste", "Canton": "Cañas", "Distrito": "Cañas", "Poblado": "Cañas", "DRE": "DRE Cañas", "Circuito": 1, "Nombre": "CTP de Cañas", "COD_Presup": 6538, "LATITUD": 10.41756092, "LONGITUD": -85.08997118000001, "Nivel": "4 - Colegio", "Dirección": "Barrio San Luis" }, "geometry": { "type": "Point", "coordinates": [ -85.089971277612321, 10.417560604717439 ] } },
{ "type": "Feature", "properties": { "Provincia": "Guanacaste", "Canton": "Cañas", "Distrito": "Cañas", "Poblado": "San Luis", "DRE": "DRE Cañas", "Circuito": 1, "Nombre": "San Luis", "COD_Presup": 2663, "LATITUD": 10.41647425, "LONGITUD": -85.08788133, "Nivel": "3 - Escuela", "Dirección": "Frente a la Gasolinera Gran Parqueo" }, "geometry": { "type": "Point", "coordinates": [ -85.08788141775743, 10.416473940157131 ] } },
{ "type": "Feature", "properties": { "Provincia": "Guanacaste", "Canton": "Liberia", "Distrito": "Cañas Dulces", "Poblado": "Cañas Dulces", "DRE": "DRE Liberia", "Circuito": 4, "Nombre": "Cañas Dulces", "COD_Presup": 2265, "LATITUD": 10.73494714, "LONGITUD": -85.47802862, "Nivel": "3 - Escuela", "Dirección": "250 metros Noroeste delegación Policia" }, "geometry": { "type": "Point", "coordinates": [ -85.478028993664992, 10.734946527417293 ] } },
{ "type": "Feature", "properties": { "Provincia": "Guanacaste", "Canton": "Liberia", "Distrito": "Cañas Dulces", "Poblado": "Cañas Dulces", "DRE": "DRE Liberia", "Circuito": 4, "Nombre": "Colegio Cañas Dulces", "COD_Presup": 4098, "LATITUD": 10.74129331, "LONGITUD": -85.48161088000001, "Nivel": "4 - Colegio", "Dirección": "Barrio La plaza,Esq.Ne.de plaza deportes 600 metros Norteorte" }, "geometry": { "type": "Point", "coordinates": [ -85.481611258019853, 10.741292695098265 ] } },
{ "type": "Feature", "properties": { "Provincia": "Guanacaste", "Canton": "Nandayure", "Distrito": "Porvenir", "Poblado": "Porvenir", "DRE": "DRE Nicoya", "Circuito": 8, "Nombre": "Cerro Azul", "COD_Presup": 2377, "LATITUD": 9.93869672, "LONGITUD": -85.29816103, "Nivel": "3 - Escuela", "Dirección": "Frente al salon comunal En Provenir" }, "geometry": { "type": "Point", "coordinates": [ -85.298160739837371, 9.938696215857199 ] } },
{ "type": "Feature", "properties": { "Provincia": "Guanacaste", "Canton": "Carrillo", "Distrito": "Sardinal", "Poblado": "Playas del Coco", "DRE": "DRE Santa Cruz", "Circuito": 6, "Nombre": "El Coco", "COD_Presup": 2573, "LATITUD": 10.54824505, "LONGITUD": -85.69879551, "Nivel": "3 - Escuela", "Dirección": "150 metros metros Oeste del Home Center" }, "geometry": { "type": "Point", "coordinates": [ -85.698795731217515, 10.548244243104264 ] } },
{ "type": "Feature", "properties": { "Provincia": "Guanacaste", "Canton": "Carrillo", "Distrito": "Sardinal", "Poblado": "Playas del Coco", "DRE": "DRE Santa Cruz", "Circuito": 6, "Nombre": "Colegio Playas del Coco", "COD_Presup": 5729, "LATITUD": 10.53856789, "LONGITUD": -85.69214669, "Nivel": "4 - Colegio", "Dirección": "100 metros Oeste y 50 metros Sur del Correo" }, "geometry": { "type": "Point", "coordinates": [ -85.692146902225574, 10.538567090941932 ] } },
{ "type": "Feature", "properties": { "Provincia": "Guanacaste", "Canton": "Abangares", "Distrito": "Colorado", "Poblado": "Colorado", "DRE": "DRE Cañas", "Circuito": 4, "Nombre": "Colorado", "COD_Presup": 2620, "LATITUD": 10.18456303, "LONGITUD": -85.10875741, "Nivel": "3 - Escuela", "Dirección": "50 metros Norte de templo católico Colorado Cent" }, "geometry": { "type": "Point", "coordinates": [ -85.108757308859168, 10.184562689630896 ] } },
{ "type": "Feature", "properties": { "Provincia": "Guanacaste", "Canton": "Carrillo", "Distrito": "Palmira", "Poblado": "Comunidad", "DRE": "DRE Santa Cruz", "Circuito": 6, "Nombre": "Pacifica García Fernández", "COD_Presup": 2507, "LATITUD": 10.55007744, "LONGITUD": -85.59079924, "Nivel": "3 - Escuela", "Dirección": "200 metros entrada principal Playas del Coco" }, "geometry": { "type": "Point", "coordinates": [ -85.590799466748592, 10.550076722903206 ] } },
{ "type": "Feature", "properties": { "Provincia": "Guanacaste", "Canton": "Nicoya", "Distrito": "San Antonio", "Poblado": "Corralillo", "DRE": "DRE Nicoya", "Circuito": 4, "Nombre": "León Cortés Castro", "COD_Presup": 2374, "LATITUD": 10.21984934, "LONGITUD": -85.37420914, "Nivel": "3 - Escuela", "Dirección": "100 metros Noroeste de la plaza" }, "geometry": { "type": "Point", "coordinates": [ -85.374209082947488, 10.21984878951994 ] } },
{ "type": "Feature", "properties": { "Provincia": "Guanacaste", "Canton": "Nicoya", "Distrito": "San Antonio", "Poblado": "Corralillo", "DRE": "DRE Nicoya", "Circuito": 4, "Nombre": "CTP de Corralillo", "COD_Presup": 4200, "LATITUD": 10.22213892, "LONGITUD": -85.37635869, "Nivel": "4 - Colegio", "Dirección": "300 metros Norte de la iglesia católica" }, "geometry": { "type": "Point", "coordinates": [ -85.376358635633338, 10.222138359653988 ] } },
{ "type": "Feature", "properties": { "Provincia": "Guanacaste", "Canton": "La Cruz", "Distrito": "Santa Elena", "Poblado": "Cuajiniquíl", "DRE": "DRE Liberia", "Circuito": 1, "Nombre": "Cuajiniquíl", "COD_Presup": 2278, "LATITUD": 10.94211218, "LONGITUD": -85.68163696000001, "Nivel": "3 - Escuela", "Dirección": "150 metros Oeste del Puesto de Comando Cuajiniquil" }, "geometry": { "type": "Point", "coordinates": [ -85.681637508021495, 10.942111406158729 ] } },
{ "type": "Feature", "properties": { "Provincia": "Guanacaste", "Canton": "La Cruz", "Distrito": "Santa Elena", "Poblado": "Cuajiniquíl", "DRE": "DRE Liberia", "Circuito": 1, "Nombre": "Liceo Cuajiniquíl", "COD_Presup": 5844, "LATITUD": 10.94232146, "LONGITUD": -85.68089191, "Nivel": "4 - Colegio", "Dirección": "Salon comunal 1200 metrosetros Oeste Camino A La Escue" }, "geometry": { "type": "Point", "coordinates": [ -85.680892459540189, 10.942320689781376 ] } },
{ "type": "Feature", "properties": { "Provincia": "Guanacaste", "Canton": "Liberia", "Distrito": "Curubandé", "Poblado": "Curubande", "DRE": "DRE Liberia", "Circuito": 4, "Nombre": "Curubande", "COD_Presup": 2280, "LATITUD": 10.72005323, "LONGITUD": -85.41004078, "Nivel": "3 - Escuela", "Dirección": "Costado Oeste del Parque." }, "geometry": { "type": "Point", "coordinates": [ -85.410041139073002, 10.720052671637323 ] } },
{ "type": "Feature", "properties": { "Provincia": "Guanacaste", "Canton": "Carrillo", "Distrito": "Filadelfia", "Poblado": "Filadelfia", "DRE": "DRE Santa Cruz", "Circuito": 5, "Nombre": "Filadelfia", "COD_Presup": 2521, "LATITUD": 10.44580737, "LONGITUD": -85.55069362, "Nivel": "3 - Escuela", "Dirección": "Costado Norte de Tribunales de Justicia" }, "geometry": { "type": "Point", "coordinates": [ -85.550693758560953, 10.445806677458485 ] } },
{ "type": "Feature", "properties": { "Provincia": "Guanacaste", "Canton": "Carrillo", "Distrito": "Filadelfia", "Poblado": "Jocote", "DRE": "DRE Santa Cruz", "Circuito": 5, "Nombre": "Los Jocotes", "COD_Presup": 2563, "LATITUD": 10.47179623, "LONGITUD": -85.56209131, "Nivel": "3 - Escuela", "Dirección": "1.5 Km Norte del Ctp de Carrillo" }, "geometry": { "type": "Point", "coordinates": [ -85.562091462828732, 10.471795534824849 ] } },
{ "type": "Feature", "properties": { "Provincia": "Guanacaste", "Canton": "Carrillo", "Distrito": "Filadelfia", "Poblado": "Filadelfia", "DRE": "DRE Santa Cruz", "Circuito": 5, "Nombre": "CTP Carrillo", "COD_Presup": 4201, "LATITUD": 10.4596928, "LONGITUD": -85.55864335, "Nivel": "4 - Colegio", "Dirección": "1 Km Norte gasolinera Sabana Filadelfia" }, "geometry": { "type": "Point", "coordinates": [ -85.558643500070062, 10.459692107909676 ] } },
{ "type": "Feature", "properties": { "Provincia": "Guanacaste", "Canton": "Liberia", "Distrito": "Curubandé", "Poblado": "Barrio Guadalupe", "DRE": "DRE Liberia", "Circuito": 4, "Nombre": "Barrio Guadalupe", "COD_Presup": 2259, "LATITUD": 10.65906383, "LONGITUD": -85.4696442, "Nivel": "3 - Escuela", "Dirección": "4.5 Km Norte de Burger King, Liberia" }, "geometry": { "type": "Point", "coordinates": [ -85.469644506773463, 10.659063218049839 ] } },
{ "type": "Feature", "properties": { "Provincia": "Guanacaste", "Canton": "Liberia", "Distrito": "Liberia", "Poblado": "Las Delicias", "DRE": "DRE Liberia", "Circuito": 4, "Nombre": "Las Delicias", "COD_Presup": 2262, "LATITUD": 10.64626302, "LONGITUD": -85.46293944, "Nivel": "3 - Escuela", "Dirección": "200 metros Oeste y 75 S.De la Empresa de Buses Caravaca." }, "geometry": { "type": "Point", "coordinates": [ -85.46293974197053, 10.646262412924195 ] } },
{ "type": "Feature", "properties": { "Provincia": "Guanacaste", "Canton": "Liberia", "Distrito": "Curubandé", "Poblado": "El Gallo", "DRE": "DRE Liberia", "Circuito": 4, "Nombre": "Nueva Generacion", "COD_Presup": 2271, "LATITUD": 10.66016982, "LONGITUD": -85.45575555000001, "Nivel": "3 - Escuela", "Dirección": "Costado Sureste plaza de Futbol" }, "geometry": { "type": "Point", "coordinates": [ -85.455755860948955, 10.660169215138612 ] } },
{ "type": "Feature", "properties": { "Provincia": "Guanacaste", "Canton": "Liberia", "Distrito": "Nacascolo", "Poblado": "Guardia", "DRE": "DRE Liberia", "Circuito": 2, "Nombre": "Guardia", "COD_Presup": 2282, "LATITUD": 10.56556229, "LONGITUD": -85.59016242, "Nivel": "3 - Escuela", "Dirección": "Costao Oeste del templo católico de Guardia." }, "geometry": { "type": "Point", "coordinates": [ -85.590162657877727, 10.56556157254153 ] } },
{ "type": "Feature", "properties": { "Provincia": "Guanacaste", "Canton": "Liberia", "Distrito": "Nacascolo", "Poblado": "Guardia", "DRE": "DRE Liberia", "Circuito": 2, "Nombre": "Liceo de Guardia", "COD_Presup": 5535, "LATITUD": 10.56201725, "LONGITUD": -85.5846011, "Nivel": "4 - Colegio", "Dirección": "800 metros Este y 275 S.de El Cencinai" }, "geometry": { "type": "Point", "coordinates": [ -85.584601334185081, 10.562016540458853 ] } },
{ "type": "Feature", "properties": { "Provincia": "Guanacaste", "Canton": "Bagaces", "Distrito": "Mogote", "Poblado": "Guayabo", "DRE": "DRE Liberia", "Circuito": 3, "Nombre": "El Guayabo", "COD_Presup": 2291, "LATITUD": 10.70851617, "LONGITUD": -85.2255566, "Nivel": "3 - Escuela", "Dirección": "Frente al templo católico." }, "geometry": { "type": "Point", "coordinates": [ -85.225556936054176, 10.708515754146838 ] } },
{ "type": "Feature", "properties": { "Provincia": "Guanacaste", "Canton": "Bagaces", "Distrito": "Mogote", "Poblado": "Guayabo", "DRE": "DRE Liberia", "Circuito": 3, "Nombre": "Colegio José María Gutiérrez", "COD_Presup": 4097, "LATITUD": 10.71189152, "LONGITUD": -85.22872598, "Nivel": "4 - Colegio", "Dirección": "650 metros Noroeste del salon comunal, Guabayo de Bagaces Guanacaste" }, "geometry": { "type": "Point", "coordinates": [ -85.228726326975661, 10.711891102101472 ] } },
{ "type": "Feature", "properties": { "Provincia": "Guanacaste", "Canton": "Hojancha", "Distrito": "Hojancha", "Poblado": "Hojancha", "DRE": "DRE Nicoya", "Circuito": 5, "Nombre": "Victoriano Mena Mena", "COD_Presup": 2427, "LATITUD": 10.05930266, "LONGITUD": -85.41941199, "Nivel": "3 - Escuela", "Dirección": "75 metros Norte y 50 metros Oeste de la clínica" }, "geometry": { "type": "Point", "coordinates": [ -85.419411803953935, 10.059302066442857 ] } },
{ "type": "Feature", "properties": { "Provincia": "Guanacaste", "Canton": "Hojancha", "Distrito": "Hojancha", "Poblado": "La Libertad", "DRE": "DRE Nicoya", "Circuito": 5, "Nombre": "CTP de Hojancha", "COD_Presup": 4197, "LATITUD": 10.06252837, "LONGITUD": -85.42459609, "Nivel": "4 - Colegio", "Dirección": "700 metros Oeste de la escuelaVictoriano Mena" }, "geometry": { "type": "Point", "coordinates": [ -85.424595898279733, 10.062527765669055 ] } },
{ "type": "Feature", "properties": { "Provincia": "Guanacaste", "Canton": "Hojancha", "Distrito": "Huacas", "Poblado": "Huacas", "DRE": "DRE Nicoya", "Circuito": 5, "Nombre": "José Martín Carrillo Castrillo", "COD_Presup": 4995, "LATITUD": 10.02232138, "LONGITUD": -85.36575797, "Nivel": "3 - Escuela", "Dirección": "Frente al C.A.I." }, "geometry": { "type": "Point", "coordinates": [ -85.365757746071381, 10.022320819497835 ] } },
{ "type": "Feature", "properties": { "Provincia": "Guanacaste", "Canton": "La Cruz", "Distrito": "La Cruz", "Poblado": "Barrio Irvin", "DRE": "DRE Liberia", "Circuito": 1, "Nombre": "Barrio Irvin", "COD_Presup": 2273, "LATITUD": 11.06476872, "LONGITUD": -85.62691189, "Nivel": "3 - Escuela", "Dirección": "Del Comando Norte 800 metros Sur y 200 metros Este" }, "geometry": { "type": "Point", "coordinates": [ -85.626912543233459, 11.064767998223463 ] } },
{ "type": "Feature", "properties": { "Provincia": "Guanacaste", "Canton": "La Cruz", "Distrito": "La Cruz", "Poblado": "La Cruz", "DRE": "DRE Liberia", "Circuito": 1, "Nombre": "Salvador Villar Munoz", "COD_Presup": 2293, "LATITUD": 11.07713987, "LONGITUD": -85.63144203, "Nivel": "3 - Escuela", "Dirección": "Costado Noreste de Colegio Nocturno La Cruz" }, "geometry": { "type": "Point", "coordinates": [ -85.631442694394281, 11.077139140399227 ] } },
{ "type": "Feature", "properties": { "Provincia": "Guanacaste", "Canton": "La Cruz", "Distrito": "La Cruz", "Poblado": "La Cruz", "DRE": "DRE Liberia", "Circuito": 1, "Nombre": "Experimental Bilingüe de La Cruz", "COD_Presup": 4100, "LATITUD": 11.06400828, "LONGITUD": -85.6297061, "Nivel": "4 - Colegio", "Dirección": "300 metros Sur Estadio Municipal" }, "geometry": { "type": "Point", "coordinates": [ -85.629706747079382, 11.064007554346734 ] } },
{ "type": "Feature", "properties": { "Provincia": "Guanacaste", "Canton": "La Cruz", "Distrito": "La Cruz", "Poblado": "El Colegio", "DRE": "DRE Liberia", "Circuito": 1, "Nombre": "Nocturno de La Cruz", "COD_Presup": 4867, "LATITUD": 11.07628628, "LONGITUD": -85.63241777, "Nivel": "4 - Colegio", "Dirección": "Parque Central de la Cruz 300 metros Norte, 100 metros Este" }, "geometry": { "type": "Point", "coordinates": [ -85.632418429055477, 11.076285547474216 ] } },
{ "type": "Feature", "properties": { "Provincia": "Guanacaste", "Canton": "La Cruz", "Distrito": "La Cruz", "Poblado": "Barrio Irvin", "DRE": "DRE Liberia", "Circuito": 1, "Nombre": "CTP Barrio Irvin", "COD_Presup": 6578, "LATITUD": 11.06579207, "LONGITUD": -85.62509607, "Nivel": "4 - Colegio", "Dirección": "150 metros metros Este de la escuela Irvin" }, "geometry": { "type": "Point", "coordinates": [ -85.625096722361647, 11.065791352341964 ] } },
{ "type": "Feature", "properties": { "Provincia": "Guanacaste", "Canton": "La Cruz", "Distrito": "La Cruz", "Poblado": "El Colegio", "DRE": "DRE Liberia", "Circuito": 1, "Nombre": "Colegio Diurno La Cruz", "COD_Presup": 6796, "LATITUD": 11.07628628, "LONGITUD": -85.63241777, "Nivel": "4 - Colegio", "Dirección": "Parque Central La Cruz 300 metrosetros Nor y 100 metros Este" }, "geometry": { "type": "Point", "coordinates": [ -85.632418429055477, 11.076285547474216 ] } },
{ "type": "Feature", "properties": { "Provincia": "Guanacaste", "Canton": "Abangares", "Distrito": "Sierra", "Poblado": "Sierra", "DRE": "DRE Cañas", "Circuito": 2, "Nombre": "La Sierra", "COD_Presup": 2653, "LATITUD": 10.28524027, "LONGITUD": -84.92885953, "Nivel": "3 - Escuela", "Dirección": null }, "geometry": { "type": "Point", "coordinates": [ -84.928859503405818, 10.285240082696406 ] } },
{ "type": "Feature", "properties": { "Provincia": "Guanacaste", "Canton": "Bagaces", "Distrito": "La Fortuna", "Poblado": "Fortuna", "DRE": "DRE Liberia", "Circuito": 3, "Nombre": "Fausto Guzman Calvo", "COD_Presup": 2296, "LATITUD": 10.67331851, "LONGITUD": -85.19971467000001, "Nivel": "3 - Escuela", "Dirección": "Frente a la plaza de Deporte." }, "geometry": { "type": "Point", "coordinates": [ -85.199714979416015, 10.673318115074306 ] } },
{ "type": "Feature", "properties": { "Provincia": "Guanacaste", "Canton": "Bagaces", "Distrito": "La Fortuna", "Poblado": "Fortuna", "DRE": "DRE Liberia", "Circuito": 3, "Nombre": "CTP Fortuna de Bagaces", "COD_Presup": 4195, "LATITUD": 10.67290139, "LONGITUD": -85.20284098, "Nivel": "4 - Colegio", "Dirección": "100 metros Sur del ebais" }, "geometry": { "type": "Point", "coordinates": [ -85.202841289079799, 10.672900995547586 ] } },
{ "type": "Feature", "properties": { "Provincia": "Guanacaste", "Canton": "La Cruz", "Distrito": "Garita", "Poblado": "La Garita", "DRE": "DRE Liberia", "Circuito": 1, "Nombre": "La Garita", "COD_Presup": 2297, "LATITUD": 11.08691208, "LONGITUD": -85.5529396, "Nivel": "3 - Escuela", "Dirección": "La Garita Centro Frente al salon comunal." }, "geometry": { "type": "Point", "coordinates": [ -85.552940262525354, 11.086911416254193 ] } },
{ "type": "Feature", "properties": { "Provincia": "Guanacaste", "Canton": "La Cruz", "Distrito": "Garita", "Poblado": "La Garita", "DRE": "DRE Liberia", "Circuito": 1, "Nombre": "Liceo Rural La Garita", "COD_Presup": 5708, "LATITUD": 11.08238081, "LONGITUD": -85.55514302, "Nivel": "4 - Colegio", "Dirección": "350 metros Sur del Comando La Garita" }, "geometry": { "type": "Point", "coordinates": [ -85.555143684807533, 11.082380140103741 ] } },
{ "type": "Feature", "properties": { "Provincia": "Guanacaste", "Canton": "Abangares", "Distrito": "Juntas", "Poblado": "Juntas", "DRE": "DRE Cañas", "Circuito": 2, "Nombre": "Delia Oviedo de Acuna", "COD_Presup": 2655, "LATITUD": 10.28012853, "LONGITUD": -84.95892978000001, "Nivel": "3 - Escuela", "Dirección": "Frente a la Casa Cural" }, "geometry": { "type": "Point", "coordinates": [ -84.958929756435964, 10.28012831199977 ] } },
{ "type": "Feature", "properties": { "Provincia": "Guanacaste", "Canton": "Abangares", "Distrito": "Juntas", "Poblado": "Las Juntas", "DRE": "DRE Cañas", "Circuito": 2, "Nombre": "CTP Abangares", "COD_Presup": 4207, "LATITUD": 10.28193676, "LONGITUD": -84.96519997, "Nivel": "4 - Colegio", "Dirección": "Frente al Cementerio Municipal de las Juntas" }, "geometry": { "type": "Point", "coordinates": [ -84.965199942369978, 10.281936541124734 ] } },
{ "type": "Feature", "properties": { "Provincia": "Guanacaste", "Canton": "Liberia", "Distrito": "Liberia", "Poblado": "Pueblo Nuevo", "DRE": "DRE Liberia", "Circuito": 4, "Nombre": "Pueblo Nuevo", "COD_Presup": 2253, "LATITUD": 10.64212757, "LONGITUD": -85.42423127000001, "Nivel": "3 - Escuela", "Dirección": "200 metros Noroeste salon comunal" }, "geometry": { "type": "Point", "coordinates": [ -85.424231566244089, 10.642126990563343 ] } },
{ "type": "Feature", "properties": { "Provincia": "Guanacaste", "Canton": "Liberia", "Distrito": "Liberia", "Poblado": "Los Ángeles", "DRE": "DRE Liberia", "Circuito": 2, "Nombre": "Alba Ocampo Alvarado", "COD_Presup": 2255, "LATITUD": 10.63017735, "LONGITUD": -85.44130796, "Nivel": "3 - Escuela", "Dirección": "200 metros Noroeste banco nacional de Costa Rica" }, "geometry": { "type": "Point", "coordinates": [ -85.441308242877184, 10.630176760151217 ] } },
{ "type": "Feature", "properties": { "Provincia": "Guanacaste", "Canton": "Liberia", "Distrito": "Liberia", "Poblado": "Capulín", "DRE": "DRE Liberia", "Circuito": 2, "Nombre": "El Capulín", "COD_Presup": 2274, "LATITUD": 10.62487481, "LONGITUD": -85.4564909, "Nivel": "3 - Escuela", "Dirección": "100 metros Este del templo católico" }, "geometry": { "type": "Point", "coordinates": [ -85.456491175682672, 10.624874206226405 ] } },
{ "type": "Feature", "properties": { "Provincia": "Guanacaste", "Canton": "Liberia", "Distrito": "Liberia", "Poblado": "Corazón de Jesús", "DRE": "DRE Liberia", "Circuito": 4, "Nombre": "Corazón de Jesús", "COD_Presup": 2287, "LATITUD": 10.64239618, "LONGITUD": -85.44555267, "Nivel": "3 - Escuela", "Dirección": "1 Km Norte y 700 metros Este del Hotel Bramadero" }, "geometry": { "type": "Point", "coordinates": [ -85.445552962438967, 10.642395587889776 ] } },
{ "type": "Feature", "properties": { "Provincia": "Guanacaste", "Canton": "Liberia", "Distrito": "Liberia", "Poblado": "El Capulín", "DRE": "DRE Liberia", "Circuito": 2, "Nombre": "Laboratorio John F. Kennedy", "COD_Presup": 2299, "LATITUD": 10.62320797, "LONGITUD": -85.44998866, "Nivel": "3 - Escuela", "Dirección": "1.5 Km Oeste de la Bomba" }, "geometry": { "type": "Point", "coordinates": [ -85.449988942552395, 10.623207371921293 ] } },
{ "type": "Feature", "properties": { "Provincia": "Guanacaste", "Canton": "Liberia", "Distrito": "Liberia", "Poblado": "Moracia", "DRE": "DRE Liberia", "Circuito": 4, "Nombre": "Moracia", "COD_Presup": 2308, "LATITUD": 10.63578595, "LONGITUD": -85.42984565, "Nivel": "3 - Escuela", "Dirección": "Del Frente Estadio Edgardo Baltodano 225 metros E." }, "geometry": { "type": "Point", "coordinates": [ -85.429845939594273, 10.635785371090606 ] } },
{ "type": "Feature", "properties": { "Provincia": "Guanacaste", "Canton": "Liberia", "Distrito": "Liberia", "Poblado": "Liberia", "DRE": "DRE Liberia", "Circuito": 2, "Nombre": "Ascensión Esquivel Ibarra", "COD_Presup": 2309, "LATITUD": 10.62926542, "LONGITUD": -85.43718981000001, "Nivel": "3 - Escuela", "Dirección": "Costado Sur iglesia Inmaculada Concepción" }, "geometry": { "type": "Point", "coordinates": [ -85.437190093634555, 10.629264831306715 ] } },
{ "type": "Feature", "properties": { "Provincia": "Guanacaste", "Canton": "Liberia", "Distrito": "Liberia", "Poblado": "Piches (San Roque)", "DRE": "DRE Liberia", "Circuito": 2, "Nombre": "San Roque", "COD_Presup": 2319, "LATITUD": 10.64219329, "LONGITUD": -85.43484115, "Nivel": "3 - Escuela", "Dirección": "Panaderia Musmanu 100 metros Este" }, "geometry": { "type": "Point", "coordinates": [ -85.434841437908261, 10.642192704471769 ] } },
{ "type": "Feature", "properties": { "Provincia": "Guanacaste", "Canton": "Liberia", "Distrito": "Liberia", "Poblado": "Barrio Nazareth", "DRE": "DRE Liberia", "Circuito": 4, "Nombre": "Jesús de Nazareth", "COD_Presup": 2323, "LATITUD": 10.64919384, "LONGITUD": -85.4341533, "Nivel": "3 - Escuela", "Dirección": "Frente a pulperia El Mango En Barrio Nazareth" }, "geometry": { "type": "Point", "coordinates": [ -85.434153594842954, 10.649193252579382 ] } },
{ "type": "Feature", "properties": { "Provincia": "Guanacaste", "Canton": "Liberia", "Distrito": "Liberia", "Poblado": "Victoria", "DRE": "DRE Liberia", "Circuito": 2, "Nombre": "La Victoria", "COD_Presup": 2328, "LATITUD": 10.62694078, "LONGITUD": -85.43060003, "Nivel": "3 - Escuela", "Dirección": "Costado Oeste de la plaza de deportes." }, "geometry": { "type": "Point", "coordinates": [ -85.430600311580434, 10.626940200371951 ] } },
{ "type": "Feature", "properties": { "Provincia": "Guanacaste", "Canton": "Liberia", "Distrito": "Liberia", "Poblado": "Llano Cruz", "DRE": "DRE Liberia", "Circuito": 2, "Nombre": "Barrio La Cruz", "COD_Presup": 2329, "LATITUD": 10.60642287, "LONGITUD": -85.43978782000001, "Nivel": "3 - Escuela", "Dirección": "Costado Oeste templo católico" }, "geometry": { "type": "Point", "coordinates": [ -85.439788087656666, 10.606422276207061 ] } },
{ "type": "Feature", "properties": { "Provincia": "Guanacaste", "Canton": "Liberia", "Distrito": "Liberia", "Poblado": "El Capulín", "DRE": "DRE Liberia", "Circuito": 2, "Nombre": "Instituto de Guanacaste", "COD_Presup": 4102, "LATITUD": 10.62058854, "LONGITUD": -85.45166855, "Nivel": "4 - Colegio", "Dirección": "Frente oficinas metros A.G." }, "geometry": { "type": "Point", "coordinates": [ -85.45166882565951, 10.62058794391857 ] } },
{ "type": "Feature", "properties": { "Provincia": "Guanacaste", "Canton": "Liberia", "Distrito": "Liberia", "Poblado": "El Capulín", "DRE": "DRE Liberia", "Circuito": 4, "Nombre": "Liceo Laboratorio de Liberia", "COD_Presup": 4103, "LATITUD": 10.62808937, "LONGITUD": -85.45174743, "Nivel": "4 - Colegio", "Dirección": "1 Km Oeste oficinas Centrales del Ice" }, "geometry": { "type": "Point", "coordinates": [ -85.451747716500037, 10.628088773118547 ] } },
{ "type": "Feature", "properties": { "Provincia": "Guanacaste", "Canton": "Liberia", "Distrito": "Liberia", "Poblado": "El Capulín", "DRE": "DRE Liberia", "Circuito": 2, "Nombre": "CTP de Liberia", "COD_Presup": 4194, "LATITUD": 10.61999699, "LONGITUD": -85.45323147000001, "Nivel": "4 - Colegio", "Dirección": "Frente a oficinas del Metros A.G. (Ministerio de.Agricultura y Ganaderia)" }, "geometry": { "type": "Point", "coordinates": [ -85.453231746216957, 10.619996385968998 ] } },
{ "type": "Feature", "properties": { "Provincia": "Guanacaste", "Canton": "Liberia", "Distrito": "Liberia", "Poblado": "Moracia", "DRE": "DRE Liberia", "Circuito": 4, "Nombre": "Nocturno de Liberia", "COD_Presup": 4869, "LATITUD": 10.63967745, "LONGITUD": -85.43040129000001, "Nivel": "4 - Colegio", "Dirección": "Costado Este del hospital E.B.B." }, "geometry": { "type": "Point", "coordinates": [ -85.430401580826171, 10.639676871814622 ] } },
{ "type": "Feature", "properties": { "Provincia": "Guanacaste", "Canton": "Tilarán", "Distrito": "Santa Rosa", "Poblado": "Los Ángeles", "DRE": "DRE Cañas", "Circuito": 3, "Nombre": "Los Ángeles", "COD_Presup": 2659, "LATITUD": 10.4896775, "LONGITUD": -85.02063806, "Nivel": "3 - Escuela", "Dirección": "Los Ángeles de Santa Rosa" }, "geometry": { "type": "Point", "coordinates": [ -85.020638211184689, 10.489677243425856 ] } },
{ "type": "Feature", "properties": { "Provincia": "Guanacaste", "Canton": "Tilarán", "Distrito": "Líbano", "Poblado": "Líbano", "DRE": "DRE Cañas", "Circuito": 3, "Nombre": "Rosita Chavez de cabezas", "COD_Presup": 2639, "LATITUD": 10.41625725, "LONGITUD": -84.98588945, "Nivel": "3 - Escuela", "Dirección": "Contigo al templo católico" }, "geometry": { "type": "Point", "coordinates": [ -84.985889538339094, 10.41625701880969 ] } },
{ "type": "Feature", "properties": { "Provincia": "Guanacaste", "Canton": "Nicoya", "Distrito": "Mansión", "Poblado": "Mansión", "DRE": "DRE Nicoya", "Circuito": 3, "Nombre": "Antonio Maceo y Grajales", "COD_Presup": 2341, "LATITUD": 10.10210556, "LONGITUD": -85.3719854, "Nivel": "3 - Escuela", "Dirección": "Frente al Aserradero La Mansion" }, "geometry": { "type": "Point", "coordinates": [ -85.371985239656155, 10.10210500176759 ] } },
{ "type": "Feature", "properties": { "Provincia": "Guanacaste", "Canton": "Nicoya", "Distrito": "Mansión", "Poblado": "La Mansión", "DRE": "DRE Nicoya", "Circuito": 3, "Nombre": "CTP La Mansión", "COD_Presup": 4199, "LATITUD": 10.09817729, "LONGITUD": -85.37399643000001, "Nivel": "4 - Colegio", "Dirección": "Contigo al salon comunal" }, "geometry": { "type": "Point", "coordinates": [ -85.373996272164547, 10.098176733418947 ] } },
{ "type": "Feature", "properties": { "Provincia": "Guanacaste", "Canton": "Santa Cruz", "Distrito": "Cabo Velas", "Poblado": "Matapalo", "DRE": "DRE Santa Cruz", "Circuito": 3, "Nombre": "Matapalo", "COD_Presup": 2566, "LATITUD": 10.3631533, "LONGITUD": -85.81145062, "Nivel": "3 - Escuela", "Dirección": "Frente al ebais Cabo Velas." }, "geometry": { "type": "Point", "coordinates": [ -85.811450701541574, 10.363152392635515 ] } },
{ "type": "Feature", "properties": { "Provincia": "Guanacaste", "Canton": "Liberia", "Distrito": "Mayorga", "Poblado": "Mayorga", "DRE": "DRE Liberia", "Circuito": 4, "Nombre": "El Consuelo", "COD_Presup": 2289, "LATITUD": 10.84976236, "LONGITUD": -85.47276481, "Nivel": "3 - Escuela", "Dirección": "2 Km E.Centro Quebrada Grande, Carr. Dos Ríos" }, "geometry": { "type": "Point", "coordinates": [ -85.472765276822329, 10.849761747513382 ] } },
{ "type": "Feature", "properties": { "Provincia": "Guanacaste", "Canton": "Liberia", "Distrito": "Mayorga", "Poblado": "Mayorga", "DRE": "DRE Liberia", "Circuito": 4, "Nombre": "Liceo El Consuelo", "COD_Presup": 5845, "LATITUD": 10.84974733, "LONGITUD": -85.47235182, "Nivel": "4 - Colegio", "Dirección": "Asentamiento El Consuelo, Quebrada Grande" }, "geometry": { "type": "Point", "coordinates": [ -85.472352281876496, 10.849746718120798 ] } },
{ "type": "Feature", "properties": { "Provincia": "Guanacaste", "Canton": "Hojancha", "Distrito": "Monte Romo", "Poblado": "Monte Romo", "DRE": "DRE Nicoya", "Circuito": 5, "Nombre": "Monte Romo", "COD_Presup": 4996, "LATITUD": 9.99730217, "LONGITUD": -85.38143556, "Nivel": "3 - Escuela", "Dirección": "Frente a iglesia católica" }, "geometry": { "type": "Point", "coordinates": [ -85.381435315520633, 9.997301596394127 ] } },
{ "type": "Feature", "properties": { "Provincia": "Guanacaste", "Canton": "Nicoya", "Distrito": "Nicoya", "Poblado": "Los Ángeles", "DRE": "DRE Nicoya", "Circuito": 1, "Nombre": "Los Ángeles", "COD_Presup": 2356, "LATITUD": 10.15068727, "LONGITUD": -85.44789908, "Nivel": "3 - Escuela", "Dirección": "Barrio Los Ángeles Diagonal a La iglesia" }, "geometry": { "type": "Point", "coordinates": [ -85.447898971363216, 10.150686655633665 ] } },
{ "type": "Feature", "properties": { "Provincia": "Guanacaste", "Canton": "Nicoya", "Distrito": "Nicoya", "Poblado": "Nicoya", "DRE": "DRE Nicoya", "Circuito": 1, "Nombre": "Leónidas Briceno Baltodano", "COD_Presup": 2410, "LATITUD": 10.13971227, "LONGITUD": -85.45282338, "Nivel": "3 - Escuela", "Dirección": "200 metros Noroeste de la municipalidad" }, "geometry": { "type": "Point", "coordinates": [ -85.452823256080805, 10.139711649764498 ] } },
{ "type": "Feature", "properties": { "Provincia": "Guanacaste", "Canton": "Nicoya", "Distrito": "Nicoya", "Poblado": "San Martín", "DRE": "DRE Nicoya", "Circuito": 1, "Nombre": "San Martín", "COD_Presup": 2462, "LATITUD": 10.15465431, "LONGITUD": -85.45546679, "Nivel": "3 - Escuela", "Dirección": "Costado Norte de la plaza de deportes" }, "geometry": { "type": "Point", "coordinates": [ -85.455466676750802, 10.154653687477429 ] } },
{ "type": "Feature", "properties": { "Provincia": "Guanacaste", "Canton": "Nicoya", "Distrito": "Nicoya", "Poblado": "El Carmen", "DRE": "DRE Nicoya", "Circuito": 1, "Nombre": "Cacique Nicoa", "COD_Presup": 2492, "LATITUD": 10.14706343, "LONGITUD": -85.45143159, "Nivel": "3 - Escuela", "Dirección": "100 metros Norte y 75 metros Este del Autobanco" }, "geometry": { "type": "Point", "coordinates": [ -85.451431474731024, 10.147062812546299 ] } },
{ "type": "Feature", "properties": { "Provincia": "Guanacaste", "Canton": "Nicoya", "Distrito": "Nicoya", "Poblado": "Nicoya", "DRE": "DRE Nicoya", "Circuito": 1, "Nombre": "Liceo de Nicoya", "COD_Presup": 4105, "LATITUD": 10.138952, "LONGITUD": -85.45125419, "Nivel": "4 - Colegio", "Dirección": "200 metros Sur del Parque Recadero Briceño" }, "geometry": { "type": "Point", "coordinates": [ -85.451254071100763, 10.138951378521549 ] } },
{ "type": "Feature", "properties": { "Provincia": "Guanacaste", "Canton": "Nicoya", "Distrito": "Nicoya", "Poblado": "El Invu", "DRE": "DRE Nicoya", "Circuito": 1, "Nombre": "CTP Nicoya", "COD_Presup": 4198, "LATITUD": 10.13741877, "LONGITUD": -85.45342858, "Nivel": "4 - Colegio", "Dirección": "300 metros Sur de la municipalidad" }, "geometry": { "type": "Point", "coordinates": [ -85.453428455356743, 10.13741814365892 ] } },
{ "type": "Feature", "properties": { "Provincia": "Guanacaste", "Canton": "Nicoya", "Distrito": "Nicoya", "Poblado": "Nicoya", "DRE": "DRE Nicoya", "Circuito": 1, "Nombre": "Nocturno de Nicoya", "COD_Presup": 4871, "LATITUD": 10.138952, "LONGITUD": -85.45125419, "Nivel": "4 - Colegio", "Dirección": "300 metros Esquina Sureste del Parque Recaredo" }, "geometry": { "type": "Point", "coordinates": [ -85.451254071100763, 10.138951378521549 ] } },
{ "type": "Feature", "properties": { "Provincia": "Guanacaste", "Canton": "Nicoya", "Distrito": "Nicoya", "Poblado": "Nicoya", "DRE": "DRE Nicoya", "Circuito": 1, "Nombre": "Humanístico Costarricense-Campus Nicoya", "COD_Presup": 0, "LATITUD": 10.1342668, "LONGITUD": -85.4467309, "Nivel": "4 - Colegio", "Dirección": "Del MOPT 75 metros Sur" }, "geometry": { "type": "Point", "coordinates": [ -85.446730772799995, 10.134266184714857 ] } },
{ "type": "Feature", "properties": { "Provincia": "Guanacaste", "Canton": "Tilarán", "Distrito": "Arenal", "Poblado": "Nuevo Arenal", "DRE": "DRE Cañas", "Circuito": 3, "Nombre": "Experimental Bilingüe de Nuevo Arenal", "COD_Presup": 4114, "LATITUD": 10.54651514, "LONGITUD": -84.89413084, "Nivel": "4 - Colegio", "Dirección": "Contigo a La Fuerza pública de Nuevo Arenal" }, "geometry": { "type": "Point", "coordinates": [ -84.894131030730051, 10.546514984793502 ] } },
{ "type": "Feature", "properties": { "Provincia": "Guanacaste", "Canton": "Tilarán", "Distrito": "Arenal", "Poblado": "Arenal", "DRE": "DRE Cañas", "Circuito": 3, "Nombre": "Arenal", "COD_Presup": 2599, "LATITUD": 10.54646504, "LONGITUD": -84.89528823000001, "Nivel": "3 - Escuela", "Dirección": "Costado Norte de la iglesia católica" }, "geometry": { "type": "Point", "coordinates": [ -84.895288424238259, 10.546464892998415 ] } },
{ "type": "Feature", "properties": { "Provincia": "Guanacaste", "Canton": "Santa Cruz", "Distrito": "Bolsón", "Poblado": "Ortega", "DRE": "DRE Santa Cruz", "Circuito": 7, "Nombre": "Mercedes Ortega Hernández", "COD_Presup": 2526, "LATITUD": 10.36130807, "LONGITUD": -85.46160661, "Nivel": "3 - Escuela", "Dirección": "Costado Oeste del Redondel" }, "geometry": { "type": "Point", "coordinates": [ -85.461606673670062, 10.361307453543739 ] } },
{ "type": "Feature", "properties": { "Provincia": "Guanacaste", "Canton": "Santa Cruz", "Distrito": "Cuajiniquíl", "Poblado": "Ostional", "DRE": "DRE Santa Cruz", "Circuito": 4, "Nombre": "Ostional", "COD_Presup": 2570, "LATITUD": 9.99804051, "LONGITUD": -85.70309923000001, "Nivel": "3 - Escuela", "Dirección": "Costado Norte plaza de deportes" }, "geometry": { "type": "Point", "coordinates": [ -85.703099002490362, 9.998039683741148 ] } },
{ "type": "Feature", "properties": { "Provincia": "Guanacaste", "Canton": "Santa Cruz", "Distrito": "Quajiniquil", "Poblado": "Ostional", "DRE": "DRE Santa Cruz", "Circuito": 4, "Nombre": "Liceo Rural Ostional", "COD_Presup": 5162, "LATITUD": 9.99873155, "LONGITUD": -85.70361976, "Nivel": "4 - Colegio", "Dirección": "100 metros Norte de la plaza de deportes" }, "geometry": { "type": "Point", "coordinates": [ -85.703619528946504, 9.998730717395633 ] } },
{ "type": "Feature", "properties": { "Provincia": "Guanacaste", "Canton": "Cañas", "Distrito": "Palmira", "Poblado": "Palmira", "DRE": "DRE Santa Cruz", "Circuito": 6, "Nombre": "Palmira", "COD_Presup": 2527, "LATITUD": 10.51420443, "LONGITUD": -85.5753736, "Nivel": "3 - Escuela", "Dirección": "200 metros al Norte de la entrada Catsa" }, "geometry": { "type": "Point", "coordinates": [ -85.575373789877588, 10.514203724221655 ] } },
{ "type": "Feature", "properties": { "Provincia": "Guanacaste", "Canton": "Carrillo", "Distrito": "Palmira", "Poblado": "Palmira", "DRE": "DRE Cañas", "Circuito": 1, "Nombre": "Corobicí", "COD_Presup": 2623, "LATITUD": 10.54403653, "LONGITUD": -85.08745122000001, "Nivel": "3 - Escuela", "Dirección": "Diagonal al salon comunal" }, "geometry": { "type": "Point", "coordinates": [ -85.087451413675439, 10.54403622151316 ] } },
{ "type": "Feature", "properties": { "Provincia": "Guanacaste", "Canton": "Cañas", "Distrito": "Porozal", "Poblado": "Porozal", "DRE": "DRE Cañas", "Circuito": 4, "Nombre": "Porozal", "COD_Presup": 2665, "LATITUD": 10.2608447, "LONGITUD": -85.1958896, "Nivel": "3 - Escuela", "Dirección": "75 metros Este del Bar El Porvenir" }, "geometry": { "type": "Point", "coordinates": [ -85.19588956917886, 10.260844289441792 ] } },
{ "type": "Feature", "properties": { "Provincia": "Guanacaste", "Canton": "Santa Cruz", "Distrito": "Tempate", "Poblado": "Portegolpe", "DRE": "DRE Santa Cruz", "Circuito": 3, "Nombre": "Portegolpe", "COD_Presup": 2530, "LATITUD": 10.34512954, "LONGITUD": -85.73306501, "Nivel": "3 - Escuela", "Dirección": "Costado Este de la plaza de Portegolpe" }, "geometry": { "type": "Point", "coordinates": [ -85.733065070512197, 10.345128704266347 ] } },
{ "type": "Feature", "properties": { "Provincia": "Guanacaste", "Canton": "Hojancha", "Distrito": "Puerto Carrillo", "Poblado": "Puerto Carrillo", "DRE": "DRE Nicoya", "Circuito": 5, "Nombre": "Puerto Carrillo", "COD_Presup": 4997, "LATITUD": 9.8650022, "LONGITUD": -85.47661189, "Nivel": "3 - Escuela", "Dirección": "25 metros Este de la Guardia Rural" }, "geometry": { "type": "Point", "coordinates": [ -85.47661154073873, 9.865001550094686 ] } },
{ "type": "Feature", "properties": { "Provincia": "Guanacaste", "Canton": "Tilarán", "Distrito": "Quebrada Grande", "Poblado": "Quebrada Grande", "DRE": "DRE Cañas", "Circuito": 3, "Nombre": "Quebrada Grande", "COD_Presup": 2668, "LATITUD": 10.43119053, "LONGITUD": -84.94483609, "Nivel": "3 - Escuela", "Dirección": "50 metros Sur de la iglesia católica" }, "geometry": { "type": "Point", "coordinates": [ -84.944836184737269, 10.431190335174241 ] } },
{ "type": "Feature", "properties": { "Provincia": "Guanacaste", "Canton": "Nicoya", "Distrito": "Quebrada Honda", "Poblado": "Quebrada Honda", "DRE": "DRE Nicoya", "Circuito": 3, "Nombre": "Andrés Briceno Acevedo", "COD_Presup": 2447, "LATITUD": 10.18546703, "LONGITUD": -85.29723454000001, "Nivel": "3 - Escuela", "Dirección": "Diagonal a oficinas de Fuerza pública" }, "geometry": { "type": "Point", "coordinates": [ -85.297234446560751, 10.185466535510722 ] } },
{ "type": "Feature", "properties": { "Provincia": "Guanacaste", "Canton": "Bagaces", "Distrito": "Río Naranjo", "Poblado": "Río Naranjo", "DRE": "DRE Norte Norte", "Circuito": 4, "Nombre": "Río Naranjo", "COD_Presup": 5048, "LATITUD": 10.68247331, "LONGITUD": -85.08982875, "Nivel": "3 - Escuela", "Dirección": "Frente a la iglesia Biblica" }, "geometry": { "type": "Point", "coordinates": [ -85.089829061747878, 10.682473002860718 ] } },
{ "type": "Feature", "properties": { "Provincia": "Guanacaste", "Canton": "Santa Cruz", "Distrito": "Cuajiniquíl", "Poblado": "San Juanillo", "DRE": "DRE Santa Cruz", "Circuito": 4, "Nombre": "San Juanillo", "COD_Presup": 2579, "LATITUD": 10.0333818, "LONGITUD": -85.74123418000001, "Nivel": "3 - Escuela", "Dirección": "Diagonal a La plaza de deportes" }, "geometry": { "type": "Point", "coordinates": [ -85.74123397999567, 10.033380939667 ] } },
{ "type": "Feature", "properties": { "Provincia": "Guanacaste", "Canton": "Nicoya", "Distrito": "San Antonio", "Poblado": "San Antonio", "DRE": "DRE Nicoya", "Circuito": 4, "Nombre": "Luis Dobles Segreda", "COD_Presup": 2456, "LATITUD": 10.19797372, "LONGITUD": -85.4308701, "Nivel": "3 - Escuela", "Dirección": "Costado Este de la plaza de deportes" }, "geometry": { "type": "Point", "coordinates": [ -85.43087002176965, 10.197973117238245 ] } },
{ "type": "Feature", "properties": { "Provincia": "Guanacaste", "Canton": "Nandayure", "Distrito": "Bejuco", "Poblado": "Coyote", "DRE": "DRE Nicoya", "Circuito": 8, "Nombre": "San Francisco", "COD_Presup": 2457, "LATITUD": 9.80368622, "LONGITUD": -85.24439301, "Nivel": "3 - Escuela", "Dirección": "Frente a la delegación Cantonal de Policia" }, "geometry": { "type": "Point", "coordinates": [ -85.244392602070576, 9.803685756298256 ] } },
{ "type": "Feature", "properties": { "Provincia": "Guanacaste", "Canton": "Nandayure", "Distrito": "Bejuco", "Poblado": "San Francisco", "DRE": "DRE Nicoya", "Circuito": 8, "Nombre": "Liceo San Francisco de Coyote", "COD_Presup": 4106, "LATITUD": 9.81108064, "LONGITUD": -85.24234693, "Nivel": "4 - Colegio", "Dirección": "600 metros Norteoroeste del Rancho Loma Clara" }, "geometry": { "type": "Point", "coordinates": [ -85.242346532829202, 9.811080174459715 ] } },
{ "type": "Feature", "properties": { "Provincia": "Guanacaste", "Canton": "Abangares", "Distrito": "San Juan", "Poblado": "San Juan Grande", "DRE": "DRE Cañas", "Circuito": 2, "Nombre": "San Juan Grande", "COD_Presup": 2680, "LATITUD": 10.2615678, "LONGITUD": -84.94623551, "Nivel": "3 - Escuela", "Dirección": "3 Km Noroeste del Parque Central Las Juntas" }, "geometry": { "type": "Point", "coordinates": [ -84.946235465500351, 10.261567596950641 ] } },
{ "type": "Feature", "properties": { "Provincia": "Guanacaste", "Canton": "Cañas", "Distrito": "San Miguel", "Poblado": "San Miguel", "DRE": "DRE Cañas", "Circuito": 1, "Nombre": "San Miguel", "COD_Presup": 2682, "LATITUD": 10.35397319, "LONGITUD": -85.07888622, "Nivel": "3 - Escuela", "Dirección": "10 Km Sur de la Ciudad de Cañas" }, "geometry": { "type": "Point", "coordinates": [ -85.078886260125316, 10.353972878948793 ] } },
{ "type": "Feature", "properties": { "Provincia": "Guanacaste", "Canton": "Nandayure", "Distrito": "San Pablo", "Poblado": "San Pablo", "DRE": "DRE Nicoya", "Circuito": 7, "Nombre": "Nandayure", "COD_Presup": 2465, "LATITUD": 10.03095325, "LONGITUD": -85.22937336, "Nivel": "3 - Escuela", "Dirección": "Contigo a La Oficina de la G.A.R" }, "geometry": { "type": "Point", "coordinates": [ -85.229373139846729, 10.030952806215767 ] } },
{ "type": "Feature", "properties": { "Provincia": "Guanacaste", "Canton": "Nandayure", "Distrito": "Zapotal", "Poblado": "San Pedro", "DRE": "DRE Nicoya", "Circuito": 7, "Nombre": "San Pedro", "COD_Presup": 2466, "LATITUD": 9.91042976, "LONGITUD": -85.37866649, "Nivel": "3 - Escuela", "Dirección": "Frente a la iglesia católica" }, "geometry": { "type": "Point", "coordinates": [ -85.378666172212235, 9.910429193338279 ] } },
{ "type": "Feature", "properties": { "Provincia": "Guanacaste", "Canton": "Abangares", "Distrito": "Sierra", "Poblado": "San Rafael", "DRE": "DRE Cañas", "Circuito": 5, "Nombre": "San Rafael", "COD_Presup": 2685, "LATITUD": 10.34340055, "LONGITUD": -84.87912414, "Nivel": "3 - Escuela", "Dirección": "100 metros Oeste de la Iglesia católica" }, "geometry": { "type": "Point", "coordinates": [ -84.879124165331845, 10.343400406044255 ] } },
{ "type": "Feature", "properties": { "Provincia": "Guanacaste", "Canton": "Abangares", "Distrito": "Sierras", "Poblado": "San Rafael", "DRE": "DRE Cañas", "Circuito": 5, "Nombre": "Colegio San Rafael", "COD_Presup": 4112, "LATITUD": 10.34468387, "LONGITUD": -84.87296713000001, "Nivel": "4 - Colegio", "Dirección": "Diagonal a La plaza de Futbol" }, "geometry": { "type": "Point", "coordinates": [ -84.87296715359804, 10.344683732188892 ] } },